abc;country;target_groups;contracts;name;street;city;postal_code;phone;email;web;latitude;longitude;services;garage_id;source_id
 ;DE;authorized car service|authorized car dealer;Mazda:service|Mazda:dealer;Bonnermann & Hüls GmbH;Nortkirchenstraße 43;Dortmund;44263;+49 231 4257720;dortmund@bh-email.de;https://www.mazda-autohaus-bonnermann-huels-dortmund.de;51.4825134;7.488728;Car Repair|Car Sales|Parts Sales|Mazda Europe Service;10030;https://www.mazda.de/api/dealers
 ;DE;authorized car service|authorized car dealer;Mazda:service|Mazda:dealer;Autohaus Brütsch GmbH;Gottlieb-Daimler-Straße 19a;Singen;78224;+49 7731 90980;info@bruetsch-gruppe.de;https://www.mazda-autohaus-bruetsch-singen.de;47.75392;8.88295;Car Repair|Car Sales|Parts Sales|Mazda Europe Service;10034;https://www.mazda.de/api/dealers
 ;DE;authorized car service|authorized car dealer;Mazda:service|Mazda:dealer;Autohaus Brosch GmbH;Heubachstraße 3;Durach-Kempten;87471;+49 831 9601630;info@auto-brosch.de;https://www.mazda-autohaus-brosch-durach-kempten.de;47.7039833;10.341115;Car Repair|Car Sales|Parts Sales|Mazda Europe Service;10048;https://www.mazda.de/api/dealers
 ;DE;authorized car service|authorized car dealer;Mazda:service|Mazda:dealer;Autohaus Blendorf GmbH;Schlägel-U. Eisen-Straße 36;Herten;45701;+49 2366 51290;info@autohaus-blendorf.de;https://www.autohaus-blendorf.de;51.6076622;7.1087656;Car Repair|Car Sales|Parts Sales|Mazda Europe Service;10058;https://www.mazda.de/api/dealers
 ;DE;authorized car service|authorized car dealer;Mazda:service|Mazda:dealer;Autohaus Andreas Banaszak;Briener Straße 23;Kleve;47533;+49 2821 78280;info@autohaus-banaszak.de;https://www.mazda-autohaus-banaszak-kleve.de;51.7948647;6.145923;Car Repair|Car Sales|Parts Sales|Mazda Europe Service;10158;https://www.mazda.de/api/dealers
 ;DE;authorized car service|authorized car dealer;Mazda:service|Mazda:dealer;Auto Freydank GmbH & Co KG;Sandberg 30;Leipzig-Rückmarsdorf;4178;+49 341 94520;info.mazda@auto-freydank.de;https://www.mazda-autohaus-freydank-leipzig-rueckmarsdorf.de/;51.3461075;12.262702;Car Repair|Car Sales|Parts Sales|Mazda Europe Service;10220;https://www.mazda.de/api/dealers
 ;DE;authorized car service|authorized car dealer;Mazda:service|Mazda:dealer;Autohaus Gödde GmbH;Schneidweg 22;Meschede;59872;+49 291 7488;meschede@autohaus-goedde.de;https://www.mazda-autohaus-goedde-meschede.de;51.35503;8.25541;Car Repair|Car Sales|Parts Sales|Mazda Europe Service;10254;https://www.mazda.de/api/dealers
 ;DE;authorized car service|authorized car dealer;Mazda:service|Mazda:dealer;Gleich Automobile GmbH;Ferd.-Lassalle-Straße 59;Reutlingen;72770;+49 7121 56760;info@gleich-automobile.de;https://www.mazda-autohaus-gleich-reutlingen.de;48.48784;9.150673;Car Repair|Car Sales|Parts Sales|Mazda Europe Service;10279;https://www.mazda.de/api/dealers
 ;DE;authorized car service|authorized car dealer;Mazda:service|Mazda:dealer;Automobile Raimund Günther GmbH;Auf der Heide 1;Dingelstädt;37351;+49 36075 3930;info@guenther-automobile.de;https://www.mazda-automobile-guenther-dingelstaedt.de;51.3111229;10.3216887;Car Repair|Car Sales|Parts Sales|Mazda Europe Service;10284;https://www.mazda.de/api/dealers
 ;DE;authorized car service|authorized car dealer;Mazda:service|Mazda:dealer;Autohaus Hutter GmbH;Färberstraße 8;Pfaffenhofen;85276;+49 8441 49340;info@auto-hutter.de;https://www.mazda-autohaus-hutter-pfaffenhofen.de;48.52316;11.5350552;Car Repair|Car Sales|Parts Sales|Mazda Europe Service;10291;https://www.mazda.de/api/dealers
 ;DE;authorized car service|authorized car dealer;Mazda:service|Mazda:dealer;Autohaus Siegmar Haese GmbH;Schimmelbuschstraße 27;Erkrath-Hochdahl;40699;+49 2104 13860;erkrath@auto-haese.de;https://www.mazda-autohaus-haese-erkrath-hochdahl.de;51.2159462;6.948459;Car Repair|Car Sales|Parts Sales|Mazda Europe Service;10307;https://www.mazda.de/api/dealers
 ;DE;authorized car service|authorized car dealer;Mazda:service|Mazda:dealer;Autohaus Ivancan GmbH;Englerstraße 30;Heidelberg-Rohrbach;69126;+49 6221 335050;info@ivancan.de;https://www.mazda-autohaus-ivancan-heidelberg-rohrbach.de;49.3667679;8.676671;Car Repair|Car Sales|Parts Sales|Mazda Europe Service;10369;https://www.mazda.de/api/dealers
 ;DE;authorized car service|authorized car dealer;Mazda:service|Mazda:dealer;Autohaus Krzykowski GmbH & Co. KG;Am Nordkreuz 20;Rastede;26180;+49 4402 92550;info@autohaus-krzykowski.de;https://www.mazda-autohaus-krzykowski-rastede.de;53.2107;8.227271;Car Repair|Car Sales|Parts Sales|Mazda Europe Service;10400;https://www.mazda.de/api/dealers
 ;DE;authorized car service|authorized car dealer;Mazda:service|Mazda:dealer;Autohaus Krämer. Inhaber Thorsten Krämer e.K.;Frankfurter Straße 21;Fulda;36043;+49 661 928440;info@kraemer-autohaus.de;https://www.mazda-autohaus-kraemer-fulda.de;50.5435944;9.676275;Car Repair|Car Sales|Parts Sales|Mazda Europe Service;10429;https://www.mazda.de/api/dealers
 ;DE;authorized car service|authorized car dealer;Mazda:service|Mazda:dealer;Autohaus Meyer GmbH;Bahnhofstraße 53;Klötze;38486;+49 3909 4444;info@meyer-gruppe.de;https://www.mazda-autohaus-meyer-kloetze.de;52.6330566;11.1498652;Car Repair|Car Sales|Parts Sales|Mazda Europe Service;10499;https://www.mazda.de/api/dealers
 ;DE;authorized car service|authorized car dealer;Mazda:service|Mazda:dealer;Autohaus Frank Piater GmbH & Co. KG;Am Seegraben 2;Cottbus;3051;+49 355 542121;kontakt@autohaus-piater.de;https://www.mazda-autohaus-piater-cottbus.de;51.71938;14.3149719;Car Repair|Car Sales|Parts Sales|Mazda Europe Service;10559;https://www.mazda.de/api/dealers
 ;DE;authorized car service|authorized car dealer;Mazda:service|Mazda:dealer;Franz Pohl GmbH;Ziethenstraße 16 a;Hamburg;22041;+49 40 6569050;info@autohaus-pohl.de;https://www.mazda-autohaus-pohl-hamburg.de;53.57662;10.101284;Car Repair|Car Sales|Parts Sales|Mazda Europe Service;10580;https://www.mazda.de/api/dealers
 ;DE;authorized car service|authorized car dealer;Mazda:service|Mazda:dealer;Priegnitz GmbH;Heerener Straße 50;Stendal;39576;+49 3931 69870;autohaus@priegnitz-sdl.de;https://www.mazda-autohaus-priegnitz-stendal.de;52.5875969;11.8719072;Car Repair|Car Sales|Parts Sales|Mazda Europe Service;10636;https://www.mazda.de/api/dealers
 ;DE;authorized car service|authorized car dealer;Mazda:service|Mazda:dealer;Tecius & Reimers Automobile OHG;Holsteiner Chaussee 172 - 178;Hamburg;22457;+49 40 5544990;info@tecius-reimers-automobile.de;https://www.mazda-autohaus-tecius-hamburg.de;53.62289;9.90879;Car Repair|Car Sales|Parts Sales|Mazda Europe Service;10647;https://www.mazda.de/api/dealers
 ;DE;authorized car service|authorized car dealer;Mazda:service|Mazda:dealer;Autohaus Sachs GmbH;Rostocker Chaussee 9;Güstrow;18273;+49 3843 211502;guestrow@autocenter-sachs.de;https://www.mazda-autohaus-sachs-guestrow.de;53.8068542;12.186492;Car Repair|Car Sales|Parts Sales|Mazda Europe Service;10678;https://www.mazda.de/api/dealers
 ;DE;authorized car service|authorized car dealer;Mazda:service|Mazda:dealer;Autohaus Schneider GmbH;Gießener Straße 28-30;Wetzlar-Dutenhofen;35582;+49 641 922090;info@mazdaschneider.de;https://www.mazda-autohaus-schneider-wetzlar-dutenhofen.de;50.55933;8.60348;Car Repair|Car Sales|Parts Sales|Mazda Europe Service;10740;https://www.mazda.de/api/dealers
 ;DE;authorized car service|authorized car dealer;Mazda:service|Mazda:dealer;Autohaus Böttcher GmbH;Lengenfelder Straße 134;Zwickau;8064;+49 375 770050;info@boettcher-aktiv.de;https://www.mazda.de/neuwagen/haendler/10750/;50.6717567;12.462512;Car Repair|Car Sales|Parts Sales;10750;https://www.mazda.de/api/dealers
 ;DE;authorized car service|authorized car dealer;Mazda:service|Mazda:dealer;Autohaus Schmidt GmbH;Striesaer Weg 11;Oschatz;4758;+49 3435 90110;info@schmidt-einfachgut.de;https://www.mazda-autohaus-schmidt-oschatz.de;51.30249;13.0922232;Car Repair|Car Sales|Parts Sales|Mazda Europe Service;10755;https://www.mazda.de/api/dealers
 ;DE;authorized car service|authorized car dealer;Mazda:service|Mazda:dealer;Auto - Schindlbeck GmbH;Osterhofener Straße 5;Regensburg;93055;+49 941 460200;info@auto-schindlbeck.de;https://www.mazda-autohaus-schindlbeck-regensburg.de;49.0124969;12.1402721;Car Repair|Car Sales|Parts Sales|Mazda Europe Service;10771;https://www.mazda.de/api/dealers
 ;DE;authorized car service|authorized car dealer;Mazda:service|Mazda:dealer;Hansmann Automobile Melsungen GmbH;Nürnberger Straße 16;Melsungen;34212;+49 5661 92930;melsungen@hansmann-automobile.de;https://www.mazda-autohaus-hansmann-melsungen.de;51.1238556;9.542208;Car Repair|Car Sales|Parts Sales|Mazda Europe Service;10812;https://www.mazda.de/api/dealers
 ;DE;authorized car service|authorized car dealer;Mazda:service|Mazda:dealer;Autohaus Unger GmbH;Friedrich-Penseler-Straße 4-8;Lüneburg;21337;+49 4131 606660;info@autohaus-unger.de;https://www.mazda-autohaus-unger-lueneburg.de;53.2365875;10.46077;Car Repair|Car Sales|Parts Sales|Mazda Europe Service;10849;https://www.mazda.de/api/dealers
 ;DE;authorized car service|authorized car dealer;Mazda:service|Mazda:dealer;Wiesmann GmbH;Wiedaustraße 101;Münster;48163;+49 2501 96010;Kontakt@AH-Wiesmann.de;https://www.mazda-autohaus-wiesmann-muenster.de;51.8934326;7.583536;Car Repair|Car Sales|Parts Sales|Mazda Europe Service;10881;https://www.mazda.de/api/dealers
 ;DE;authorized car service|authorized car dealer;Mazda:service|Mazda:dealer;W. + K. Automobil Handelsgesellschaft mbH;Hemsack 1;Kamen;59174;+49 2307 925000;service@wk-kamen.de;https://www.mazda-autohaus-w-k-kamen.de;51.58136;7.646405;Car Repair|Car Sales|Parts Sales|Mazda Europe Service;10899;https://www.mazda.de/api/dealers
 ;DE;authorized car service|authorized car dealer;Mazda:service|Mazda:dealer;Autohaus Wuttke & Quast GmbH;Gummersbacher Straße 92;Gummersbach;51645;+49 2261 290490;wuttke-Autohaus@t-online.de;https://www.mazda-autohaus-wuttke-gummersbach.de;51.0142746;7.572468;Car Repair|Car Sales|Parts Sales|Mazda Europe Service;10906;https://www.mazda.de/api/dealers
 ;DE;authorized car service|authorized car dealer;Mazda:service|Mazda:dealer;Autohaus Norbert Kalina e.K.;Kampstraße 33;Gelsenkirchen;45899;+49 209 958950;Autohaus_Kalina@t-online.de;https://www.mazda-autohaus-kalina-gelsenkirchen.de;51.5518837;7.03775549;Car Repair|Car Sales|Parts Sales|Mazda Europe Service;10939;https://www.mazda.de/api/dealers
 ;DE;authorized car service|authorized car dealer;Mazda:service|Mazda:dealer;Autohaus Butz & Mühlbach GmbH;Orensteinstraße 2;Andernach;56626;+49 2632 92940;info@butz-muehlbach.de;https://www.mazda-autohaus-butz-und-muehlbach-andernach.de;50.41305;7.407805;Car Repair|Car Sales|Parts Sales|Mazda Europe Service;10977;https://www.mazda.de/api/dealers
 ;DE;authorized car service|authorized car dealer;Mazda:service|Mazda:dealer;Auto-Park Rath NL der I.C. Autohandel Rheinland GmbH;Oberhausener Straße 2;Düsseldorf;40472;+49 211 965050;info@Autopark-Rath.de;https://www.mazda-autopark-rath-duesseldorf.de;51.2707634;6.819455;Car Repair|Car Sales|Parts Sales|Mazda Europe Service;11029;https://www.mazda.de/api/dealers
 ;DE;authorized car service|authorized car dealer;Mazda:service|Mazda:dealer;Autohaus Koch GmbH;Marzahner Chaussee 219;Berlin;12681;+49 30 5499880;DE07INFOMAZ@koch-ag.de;https://www.mazda-autohaus-koch-berlin-koepenick.de;52.52741;13.5342;Car Repair|Car Sales|Parts Sales|Mazda Europe Service;11078;https://www.mazda.de/api/dealers
 ;DE;authorized car service|authorized car dealer;Mazda:service|Mazda:dealer;Lorbeer OHG;Landhausallee 9;Weimar;99425;+49 3643 86600;info-weimar@autohaus-lorbeer.de;https://www.mazda-autohaus-lorbeer-weimar.de;50.9831;11.3816;Car Repair|Car Sales|Parts Sales|Mazda Europe Service;11115;https://www.mazda.de/api/dealers
 ;DE;authorized car service|authorized car dealer;Mazda:service|Mazda:dealer;Autohaus Meklenborg Vertriebs GmbH;Malteserstraße 10-18;Berlin Steglitz;12247;+49 30 766810;autohaus@meklenborg.de;https://www.mazda-autohaus-meklenborg-berlin.de;52.4347649;13.3524952;Car Repair|Car Sales|Parts Sales|Mazda Europe Service;11195;https://www.mazda.de/api/dealers
 ;DE;authorized car service|authorized car dealer;Mazda:service|Mazda:dealer;Coenen Motors GmbH;Krefelder Straße 674;Mönchengladbach;41066;+49 2161 969990;mazda-mg@waltercoenen.de;https://www.mazda-autohaus-coenen-moenchengladbach.de;51.22367;6.48404;Car Repair|Car Sales|Parts Sales|Mazda Europe Service;11197;https://www.mazda.de/api/dealers
 ;DE;authorized car service|authorized car dealer;Mazda:service|Mazda:dealer;City Autopartner GmbH;Rosenheimer Straße 61;Kolbermoor;83059;+49 8031 941480;info@city-autopartner.de;https://www.mazda-autohaus-city-autopartner-kolbermoor.de;47.8491974;12.0774412;Car Repair|Car Sales|Parts Sales|Mazda Europe Service;11206;https://www.mazda.de/api/dealers
 ;DE;authorized car service|authorized car dealer;Mazda:service|Mazda:dealer;Autohaus Hentschel GmbH;Vahrenwalder Straße 141;Hannover;30165;+49 511 35250;info@autohaus-hentschel.de;https://www.mazda-autohaus-hentschel-hannover.de;52.3992271;9.735825;Car Repair|Car Sales|Parts Sales|Mazda Europe Service;11256;https://www.mazda.de/api/dealers
 ;DE;authorized car service|authorized car dealer;Mazda:service|Mazda:dealer;Schwabengarage GmbH;Karlsruher Straße 22;Pforzheim;75179;+49 7231 37950;kevin.drotleff@schwabengarage.de;https://www.mazda-autohaus-sg-pforzheim.de;48.9012222;8.663531;Car Repair|Car Sales|Parts Sales|Mazda Europe Service;11257;https://www.mazda.de/api/dealers
 ;DE;authorized car service|authorized car dealer;Mazda:service|Mazda:dealer;Schwabengarage GmbH;Georg-Vogel-Straße 10;Heilbronn;74080;+49 7131 47050;mazda.dispo.heilbronn@schwabengarage.de;https://www.mazda-autohaus-sg-heilbronn.de;49.1454773;9.200959;Car Repair|Car Sales|Parts Sales|Mazda Europe Service;11259;https://www.mazda.de/api/dealers
 ;DE;authorized car service|authorized car dealer;Mazda:service|Mazda:dealer;Sachsengarage GmbH;Liebstädter Straße 5;Dresden;1277;+49 351 4201210;mazdainfo@sachsengarage.de;https://www.mazda-autohaus-saga-dresden.de;51.0280533;13.7859392;Car Repair|Car Sales|Parts Sales|Mazda Europe Service;11262;https://www.mazda.de/api/dealers
 ;DE;authorized car service|authorized car dealer;Mazda:service|Mazda:dealer;Hugo Pfohe GmbH;Am Spargelhof 10;Lübeck;23554;+49 451 889000;luebeck@hugopfohe.de;https://www.mazda-autohaus-pfohe-luebeck.de;53.87855;10.66556;Car Repair|Car Sales|Parts Sales|Mazda Europe Service;11263;https://www.mazda.de/api/dealers
 ;DE;authorized car service|authorized car dealer;Mazda:service|Mazda:dealer;Schwabengarage GmbH;Cannstatter Straße 46;Stuttgart;70190;+49 711 28037220;1010-7220@schwabengarage.de;https://www.mazda-autohaus-sg-stuttgart.de;48.7905464;9.194211;Car Repair|Car Sales|Parts Sales|Mazda Europe Service;11264;https://www.mazda.de/api/dealers
 ;DE;authorized car service|authorized car dealer;Mazda:service|Mazda:dealer;Autohaus Hessengarage GmbH;Am Riederbruch 8;Frankfurt;60386;+49 69 4209870;info@hessengarage.de;https://www.mazda-autohaus-hega-frankfurt.de;50.1248;8.728207;Car Repair|Car Sales|Parts Sales|Mazda Europe Service;11265;https://www.mazda.de/api/dealers
 ;DE;authorized car service|authorized car dealer;Mazda:service|Mazda:dealer;Auto A Müller GmbH;Fasanenallee 3;Saarlouis;66740;+49 6831 949800;kontakt@mueller-mazda.com;https://www.mazda-autohaus-mueller-saarlouis.de;49.30603;6.739338;Car Repair|Car Sales|Parts Sales|Mazda Europe Service;11269;https://www.mazda.de/api/dealers
 ;DE;authorized car service|authorized car dealer;Mazda:service|Mazda:dealer;Autohaus A. Gruber OHG;Gewerbepark Kaserne 10;Traunstein;83278;+49 861 1660966;INFO@AGM.de;https://www.mazda-autohaus-gruber-traunstein.de;47.8799324;12.6354227;Car Repair|Car Sales|Parts Sales|Mazda Europe Service;11275;https://www.mazda.de/api/dealers
 ;DE;authorized car dealer;Mazda:dealer;SEMcar GmbH & Co. KG;An Der Ziegelei 8;Bernburg;6406;+49 3471 322622;disponent@ludwig-autohaus.de;https://www.mazda-autohaus-semcar-bernburg.de;51.7714958;11.787816;Car Sales|Mazda Europe Service;11287;https://www.mazda.de/api/dealers
 ;DE;authorized car service|authorized car dealer;Mazda:service|Mazda:dealer;Autohaus Kierdorf NL der I.C. Autohandel Rheinland GmbH;Oskar-Jäger-Straße 166-168;Köln;50825;+49 221 400850;info@autohaus-kierdorf.de;https://www.mazda-autohaus-kierdorf-koeln.de;50.9476852;6.907742;Car Repair|Car Sales|Parts Sales|Mazda Europe Service;11291;https://www.mazda.de/api/dealers
 ;DE;authorized car service|authorized car dealer;Mazda:service|Mazda:dealer;Autohaus Bauer GmbH;Weilheimer Straße 52;Pöcking;82343;+49 8157 93930;info@autohaus-bauer-gmbh.de;https://www.mazda-autohaus-bauer-poecking.de;47.9633255;11.29474;Car Repair|Car Sales|Parts Sales;11292;https://www.mazda.de/api/dealers
 ;DE;authorized car service|authorized car dealer;Mazda:service|Mazda:dealer;Automobile Weberpals GmbH;Cortendorfer Straße 92;Coburg;96450;+49 9561 239390;info@automobile-weberpals.de;https://www.mazda-automobile-weberpals-coburg.de;50.2726746;10.9901333;Car Repair|Car Sales|Parts Sales|Mazda Europe Service;11295;https://www.mazda.de/api/dealers
 ;DE;authorized car service|authorized car dealer;Mazda:service|Mazda:dealer;Autohaus Lind GmbH;Borsigstraße 39;Heinsberg;52525;+49 2452 95450;info@autohaus-lind.de;https://www.mazda-autohaus-lind-heinsberg.de;51.06552;6.11510563;Car Repair|Car Sales|Parts Sales|Mazda Europe Service;11299;https://www.mazda.de/api/dealers
 ;DE;authorized car service|authorized car dealer;Mazda:service|Mazda:dealer;Autohaus Erhard Hüther e.K.;Wolfsgrube 2;Meiningen-Dreissigacker;98617;+49 3693 94700;info@auto-huether.de;https://www.mazda-autohaus-huether-meiningen-dreissigacker.de;50.5580177;10.3660955;Car Repair|Car Sales|Parts Sales|Mazda Europe Service;11300;https://www.mazda.de/api/dealers
 ;DE;authorized car service|authorized car dealer;Mazda:service|Mazda:dealer;Autohaus Rottmann GmbH;Raiffeisenstraße 9;Bottrop;46244;+49 2045 82626;info@autohaus-rottmann.de;https://www.mazda-autohaus-rottmann-bottrop.de;51.61052;6.93302;Car Repair|Car Sales|Parts Sales|Mazda Europe Service;11301;https://www.mazda.de/api/dealers
 ;DE;authorized car service|authorized car dealer;Mazda:service|Mazda:dealer;S & R Automobile GmbH;Koblenzer Straße 16;Diez;65582;+49 6432 800880;info@sr-auto.de;https://www.mazda-autohaus-s-r-diez.de;50.37438;8.00202;Car Repair|Car Sales|Parts Sales|Mazda Europe Service;11303;https://www.mazda.de/api/dealers
 ;DE;authorized car service|authorized car dealer;Mazda:service|Mazda:dealer;Auto-Sedlmeier GmbH;Bodenseestraße 295;München;81249;+49 89 8976010;info@auto-sedlmeier.de;https://www.mazda-autohaus-sedlmeier-muenchen.de;48.14154;11.41724;Car Repair|Car Sales|Parts Sales|Mazda Europe Service;11304;https://www.mazda.de/api/dealers
 ;DE;authorized car service|authorized car dealer;Mazda:service|Mazda:dealer;Auto Fritsch GmbH;Prunner Hauptstraße 14;Riedenburg;93339;+49 9442 9220690;info@auto-fritsch.de;https://www.mazda-autohaus-fritsch-riedenburg.de;48.95337;11.73001;Car Repair|Car Sales|Parts Sales|Mazda Europe Service;11305;https://www.mazda.de/api/dealers
 ;DE;authorized car service|authorized car dealer;Mazda:service|Mazda:dealer;Auto Schmeltzer GmbH;Konrad-Adenauer-Straße 72;Wachtberg;53343;+49 228 954610;auto-schmeltzer@t-online.de;https://www.mazda-autohaus-schmeltzer-wachtberg.de;50.64133;7.17619;Car Repair|Car Sales|Parts Sales|Mazda Europe Service;11306;https://www.mazda.de/api/dealers
 ;DE;authorized car service|authorized car dealer;Mazda:service|Mazda:dealer;Autocentrum Engin GmbH;Fürstenberger Straße 58;Holzminden;37603;+49 5531 9905480;info@autocentrum-engin.de;https://www.mazda-autocentrum-engin-holzminden.de;51.81808;9.44894;Car Repair|Car Sales|Parts Sales|Mazda Europe Service;11308;https://www.mazda.de/api/dealers
 ;DE;authorized car service;Mazda:service;Autohaus Holsten GmbH;Dorfstraße 87;Oerel;27432;+49 4761 98550;verkauf@autohaus-holsten.de;https://www.mazda-service-holsten-oerel.de;53.49295;9.0699;Car Repair|Parts Sales|Mazda Europe Service;11309;https://www.mazda.de/api/dealers
 ;DE;authorized car service|authorized car dealer;Mazda:service|Mazda:dealer;Autohaus Bläse GmbH;Am Gallengraben 2;Schwäbisch Gmünd;73529;+49 7173 926200;Autohaus-Blaese@t-online.de;https://www.mazda-autohaus-blaese-schwaebischgmuend.de;48.79197;9.89382;Car Repair|Car Sales|Parts Sales|Mazda Europe Service;11311;https://www.mazda.de/api/dealers
 ;DE;authorized car service|authorized car dealer;Mazda:service|Mazda:dealer;Autohaus Ehrlich GmbH;Magnolienweg 38-40;Aschaffenburg;63741;+49 6021 458040;info1@ehrlich.de;https://www.mazda-autohaus-ehrlich-aschaffenburg.de;49.9692039;9.132066;Car Repair|Car Sales|Parts Sales|Mazda Europe Service;11313;https://www.mazda.de/api/dealers
 ;DE;authorized car service|authorized car dealer;Mazda:service|Mazda:dealer;Moll Automobile GmbH & Co.KG;Neuenhofstr. 77;Aachen;52078;+49 241 900600;Info@moll-automobile.de;https://www.mazda-autohaus-moll-aachen.de;50.7668571;6.146488;Car Repair|Car Sales|Parts Sales|Mazda Europe Service;11315;https://www.mazda.de/api/dealers
 ;DE;authorized car service|authorized car dealer;Mazda:service|Mazda:dealer;Auto Buchfink GmbH;Plattenwaldallee 56;Backnang;71522;+49 7191 9033180;info@auto-buchfink.de;https://www.mazda-autohaus-buchfink-backnang.de;48.95251;9.454416;Car Repair|Car Sales|Parts Sales|Mazda Europe Service;11316;https://www.mazda.de/api/dealers
 ;DE;authorized car service|authorized car dealer;Mazda:service|Mazda:dealer;Autohaus Elstner GmbH;Damaschkeweg 65;Jena;7745;+49 3641 282818;info@elstner-jena.de;https://www.mazda-autohaus-elstner-jena.de;50.9001961;11.5855961;Car Repair|Car Sales|Parts Sales|Mazda Europe Service;11318;https://www.mazda.de/api/dealers
 ;DE;authorized car service;Mazda:service;Autohaus Martin GmbH;Fünfminutenweg Nord 2;Windischleuba;4603;+49 3447 85210;auto-martin-sln@t-online.de;https://www.mazda-service-martin-windischleuba.de;51.0127144;12.45742;Car Repair|Parts Sales|Mazda Europe Service;11319;https://www.mazda.de/api/dealers
 ;DE;authorized car service|authorized car dealer;Mazda:service|Mazda:dealer;Auto Becker. Inh. André Jongeling e.K.;Buschkamp 2-4;Rhede;46414;+49 2872 3400;info@mazdabecker.de;https://www.mazda-autohaus-becker-rhede.de;51.8315239;6.712232;Car Repair|Car Sales|Parts Sales|Mazda Europe Service;11321;https://www.mazda.de/api/dealers
 ;DE;authorized car service|authorized car dealer;Mazda:service|Mazda:dealer;Autohaus Koch & Herrmann GmbH;Zunftstraße 1;Dessau-Roßlau;6847;+49 340 51985280;verkauf-dessau@ah-koch-herrmann.de;https://www.mazda-autohaus-koch-dessau-rosslau.de;51.8114662;12.21722;Car Repair|Car Sales|Parts Sales|Mazda Europe Service;11323;https://www.mazda.de/api/dealers
 ;DE;authorized car service|authorized car dealer;Mazda:service|Mazda:dealer;Auto A Müller GmbH;Wolfsborn 31;Losheim;66679;+49 6872 92000;kontakt@mueller-mazda.com;https://www.mazda-autohaus-mueller-losheim.de;49.5108757;6.759515;Car Repair|Car Sales|Parts Sales|Mazda Europe Service;11324;https://www.mazda.de/api/dealers
 ;DE;authorized car service|authorized car dealer;Mazda:service|Mazda:dealer;Autohaus Born GmbH;Am Umspannwerk 6a;Ludwigslust;19288;+49 3874 29182;d.born@ah-born.de;https://www.mazda-autohaus-born-ludwigslust.de;53.3124466;11.490345;Car Repair|Car Sales|Parts Sales|Mazda Europe Service;11325;https://www.mazda.de/api/dealers
 ;DE;authorized car service|authorized car dealer;Mazda:service|Mazda:dealer;Berthold Regett GmbH;Am Kümken 2;Soest;59494;+49 2921 969800;b.regett@autohaus-regett.de;https://www.mazda-autohaus-regett-soest.de;51.56598;8.124201;Car Repair|Car Sales|Parts Sales|Mazda Europe Service;11326;https://www.mazda.de/api/dealers
 ;DE;authorized car service|authorized car dealer;Mazda:service|Mazda:dealer;Autohaus Kuhlmann GmbH;Winchenbachstraße 11-13;Wuppertal;42281;+49 202 501020;info@mazda365.de;https://www.mazda-autohaus-kuhlmann-wuppertal.de;51.2805252;7.189489;Car Repair|Car Sales|Parts Sales|Mazda Europe Service;11327;https://www.mazda.de/api/dealers
 ;DE;authorized car service|authorized car dealer;Mazda:service|Mazda:dealer;Autohaus Lang am Ostring GmbH;Weinweg 22;Karlsruhe;76131;+49 721 962500;info@123Lang.de;https://www.mazda-autohaus-lang-karlsruhe.de;49.00827;8.442816;Car Repair|Car Sales|Parts Sales|Mazda Europe Service;11328;https://www.mazda.de/api/dealers
 ;DE;authorized car service|authorized car dealer;Mazda:service|Mazda:dealer;Autohaus Tabbouch GmbH;Franz-Kirrmeier-Straße 20a;Speyer;67346;+49 6232 43894;info@autohaus-tabbouch.de;https://www.mazda-autohaus-tabbouch-speyer.de;49.3287659;8.449725;Car Repair|Car Sales|Parts Sales|Mazda Europe Service;11329;https://www.mazda.de/api/dealers
 ;DE;authorized car service|authorized car dealer;Mazda:service|Mazda:dealer;Auto Teuteberg GmbH;Sprendlinger Landstraße 152;Offenbach;63069;+49 69 8300993;info@auto-teuteberg.de;https://www.mazda-autohaus-teuteberg-offenbach.de;50.0874252;8.748489;Car Repair|Car Sales|Parts Sales|Mazda Europe Service;11330;https://www.mazda.de/api/dealers
 ;DE;authorized car service;Mazda:service;BOB Automobile Nord GmbH;Wolfsbankring 44;Essen;45355;+49 201 3839130;kundenbetreuung@bob-automobile.de;https://www.mazda-service-boden-essen.de;51.4717445;6.960981;Car Repair|Parts Sales|Mazda Europe Service;11331;https://www.mazda.de/api/dealers
 ;DE;authorized car service|authorized car dealer;Mazda:service|Mazda:dealer;Autohaus Büdenbender GmbH;Weidenauer Str. 218;Siegen;57076;+49 271 40380;info@buedenbender.de;https://www.mazda-autovertrieb-buedenbender-siegen.de;50.8933334;8.027707;Car Repair|Car Sales|Parts Sales|Mazda Europe Service;11333;https://www.mazda.de/api/dealers
 ;DE;authorized car service;Mazda:service;Autohaus Butz & Mühlbach GmbH;Polcher Straße 164;Mayen;56727;+49 2651 98940;infomayen@butz-muehlbach.de;;50.31902;7.233445;Car Repair|Parts Sales|Mazda Europe Service;11334;https://www.mazda.de/api/dealers
 ;DE;authorized car service|authorized car dealer;Mazda:service|Mazda:dealer;Auto Engel GmbH;Sternstraße 5c;Halberstadt;38820;+49 3941 611046;constanz@engelauto.de;https://www.mazda-autohaus-engel-halberstadt.de;51.89662;11.0353441;Car Repair|Car Sales|Parts Sales|Mazda Europe Service;11336;https://www.mazda.de/api/dealers
 ;DE;authorized car service|authorized car dealer;Mazda:service|Mazda:dealer;Autohaus Koch GmbH;Karl-Liebknecht-Str. 64-65;Königs Wusterhausen OT Zeesen;15711;+49 3375 904010;Email-DE09EMPMAR@koch-ag.de;https://www.mazda-autohaus-koch-koenigswusterhausen.de;52.2736778;13.6328554;Car Repair|Car Sales|Parts Sales|Mazda Europe Service;11338;https://www.mazda.de/api/dealers
 ;DE;authorized car service|authorized car dealer;Mazda:service|Mazda:dealer;AIDA Autohaus GmbH;Johannisthaler Chaussee 401;Berlin;12351;+49 30 6600640;info@aida-autohaus.de;https://www.mazda-autohaus-aida-berlin.de;52.4254837;13.4437313;Car Repair|Car Sales|Parts Sales|Mazda Europe Service;11341;https://www.mazda.de/api/dealers
 ;DE;authorized car service|authorized car dealer;Mazda:service|Mazda:dealer;Autohaus Hellwig KG;Kreckwitzer Straße 1;Bautzen;2625;+49 3591 678630;d.hellwig@autohaus-hellwig.de;https://www.mazda-autohaus-hellwig-bautzen.de;51.19068;14.4517651;Car Repair|Car Sales|Parts Sales|Mazda Europe Service;11342;https://www.mazda.de/api/dealers
 ;DE;authorized car service|authorized car dealer;Mazda:service|Mazda:dealer;Autohaus Rüd. Inh. Jörg Rüd e.K.;Zinkmattenstr. 16;Freiburg;79108;+49 761 8885100;info@autohaus-rued.de;https://www.mazda-autohaus-rued-freiburg.de;48.0274353;7.855677;Car Repair|Car Sales|Parts Sales|Mazda Europe Service;11345;https://www.mazda.de/api/dealers
 ;DE;authorized car service;Mazda:service;Autohaus Fischer GmbH;Baumschulenweg 2;Celle;29227;+49 5141 3747474;info@fischer-autohaus.com;https://www.mazda-autohaus-fischer-celle.de;52.60021;10.1063833;Car Repair|Parts Sales|Mazda Europe Service;11346;https://www.mazda.de/api/dealers
 ;DE;authorized car service|authorized car dealer;Mazda:service|Mazda:dealer;Autohaus Sachs GmbH;Kösterbecker Str. 1a;Roggentin;18184;+49 38204 6020;roggentin@autocenter-sachs.de;https://www.mazda-autohaus-sachs-roggentin.de;54.0797272;12.212388;Car Repair|Car Sales|Parts Sales|Mazda Europe Service;11347;https://www.mazda.de/api/dealers
 ;DE;authorized car service|authorized car dealer;Mazda:service|Mazda:dealer;Autohaus Schnaitheim GmbH & Co.KG;Nördlinger Str. 66;Heidenheim;89520;+49 7321 96950;info@autohausschnaitheim.de;https://www.mazda-autohaus-schnaitheim-heidenheim.de;48.69012;10.1652832;Car Repair|Car Sales|Parts Sales|Mazda Europe Service;11348;https://www.mazda.de/api/dealers
 ;DE;authorized car service|authorized car dealer;Mazda:service|Mazda:dealer;Schmitz + Zinke GmbH;Klosengartenstr. 43;Erftstadt;50374;+49 2235 929490;info@schmitz-zinke.de;https://www.mazda-autohaus-schmitz-zinke-erftstadt.de;50.82064;6.81022;Car Repair|Car Sales|Parts Sales|Mazda Europe Service;11349;https://www.mazda.de/api/dealers
 ;DE;authorized car service|authorized car dealer;Mazda:service|Mazda:dealer;Autohaus Süverkrüp GmbH & Co. KG;Büsumer Str. 97-101;Rendsburg;24768;+49 4331 439490;info@sueverkruep.de;https://www.mazda-autohaus-sueverkruep-rendsburg.de;54.3177643;9.616765;Car Repair|Car Sales|Parts Sales|Mazda Europe Service;11350;https://www.mazda.de/api/dealers
 ;DE;authorized car service|authorized car dealer;Mazda:service|Mazda:dealer;Autohaus Epple GmbH & Co. KG;Leonberger Str. 56-61;Rutesheim;71277;+49 7152 99360;info@autozentrum-epple.de;https://www.mazda-autohaus-epple-rutesheim.de;48.8066139;8.952486;Car Repair|Car Sales|Parts Sales|Mazda Europe Service;11353;https://www.mazda.de/api/dealers
 ;DE;authorized car service|authorized car dealer;Mazda:service|Mazda:dealer;Ernst Dello GmbH & Co.KG;Nedderfeld 91;Hamburg;22529;+49 40 47120;eppendorf@dello.de;https://www.mazda-autohaus-dello-hamburg-eppendorf.de;53.6017151;9.97964;Car Repair|Car Sales|Parts Sales|Mazda Europe Service;11354;https://www.mazda.de/api/dealers
 ;DE;authorized car service|authorized car dealer;Mazda:service|Mazda:dealer;Ernst Dello GmbH & Co.KG;Großmoorbogen 3;Hamburg;21079;+49 40 771210;harburg@dello.de;https://www.mazda-autohaus-dello-hamburg-neuland.de;53.4601364;10.0112925;Car Repair|Car Sales|Parts Sales|Mazda Europe Service;11355;https://www.mazda.de/api/dealers
 ;DE;authorized car service|authorized car dealer;Mazda:service|Mazda:dealer;Ernst Dello GmbH & Co.KG;Niendorfer Straße 139;Norderstedt;22848;+49 40 534290;norderstedt@dello.de;https://www.mazda-autohaus-dello-norderstedt.de;53.6669235;9.97244;Car Repair|Car Sales|Parts Sales|Mazda Europe Service;11356;https://www.mazda.de/api/dealers
 ;DE;authorized car service|authorized car dealer;Mazda:service|Mazda:dealer;Autohaus J. Huber GmbH;Schellberg 2;Pfarrkirchen;84347;+49 8561 984960;info@j-huber.de;https://www.mazda-autohaus-huber-pfarrkirchen.de;48.41926;12.95317;Car Repair|Car Sales|Parts Sales|Mazda Europe Service;11358;https://www.mazda.de/api/dealers
 ;DE;authorized car service|authorized car dealer;Mazda:service|Mazda:dealer;Auto-Centrum Hönigk GmbH & Co. KG;Am Heidering 6;Oranienburg;16515;+49 3301 83130;info@auto-centrumhoenigk.de;https://www.mazda-autocentrum-hoenigk-oranienburg.de;52.7730522;13.2637873;Car Repair|Car Sales|Parts Sales|Mazda Europe Service;11359;https://www.mazda.de/api/dealers
 ;DE;authorized car service|authorized car dealer;Mazda:service|Mazda:dealer;Autohaus Bögl GmbH;Nürnberger Str. 35;Neumarkt/Opf;92318;+49 9181 4020;info@auto-boegl.de;https://www.mazda-autohaus-boegl-neumarkt.de;49.2873344;11.4443846;Car Repair|Car Sales|Parts Sales|Mazda Europe Service;11360;https://www.mazda.de/api/dealers
 ;DE;authorized car service|authorized car dealer;Mazda:service|Mazda:dealer;Auto-Team Kfz.-Service GmbH;Sigmaringer Str. 142;Albstadt;72458;+49 7431 54241;info@auto-team-albstadt.de;https://www.mazda-autohaus-albstadt-auto-team.de;48.20374;9.046978;Car Repair|Car Sales|Parts Sales|Mazda Europe Service;11361;https://www.mazda.de/api/dealers
 ;DE;authorized car service|authorized car dealer;Mazda:service|Mazda:dealer;Mattern GmbH;Bünder Straße 1;Hiddenhausen;32120;+49 5221 278450;mazda@auto-mattern.de;https://www.mazda-autohaus-mattern-hiddenhausen.de;52.1344;8.660885;Car Repair|Car Sales|Parts Sales|Mazda Europe Service;11362;https://www.mazda.de/api/dealers
 ;DE;authorized car service|authorized car dealer;Mazda:service|Mazda:dealer;Autohaus Siegmar Haese GmbH;Haddenbacher Straße 4;Remscheid;42855;+49 2191 4644846;remscheid@auto-haese.de;https://www.mazda-autohaus-haese-remscheid.de;51.1786346;7.2039;Car Repair|Car Sales|Parts Sales|Mazda Europe Service;11363;https://www.mazda.de/api/dealers
 ;DE;authorized car service|authorized car dealer;Mazda:service|Mazda:dealer;Häusler Automobil GmbH & Co. KG;Landsberger Str. 83-87;München;80339;+49 89 5101403;info@haeusler.de;https://www.mazda-autohaus-haeusler-muenchen.de;48.13971;11.53606;Car Repair|Car Sales|Parts Sales|Mazda Europe Service;11364;https://www.mazda.de/api/dealers
 ;DE;authorized car service|authorized car dealer;Mazda:service|Mazda:dealer;Autohaus Süverkrüp GmbH & Co. KG;Holzkoppelweg 11;Kiel;24118;+49 431 5464618;info@sueverkruep.de;https://www.mazda-autohaus-sueverkruep-kiel.de;54.336132;10.1130676;Car Repair|Car Sales|Parts Sales|Mazda Europe Service;11366;https://www.mazda.de/api/dealers
 ;DE;authorized car service|authorized car dealer;Mazda:service|Mazda:dealer;Autohaus Aventi GmbH;Rodezstr. 2;Bamberg;96052;+49 951 93320;info@autohaus-aventi.de;https://www.mazda-autohaus-aventi-bamberg.de;49.9141769;10.9077568;Car Repair|Car Sales|Parts Sales|Mazda Europe Service;11367;https://www.mazda.de/api/dealers
 ;DE;authorized car service|authorized car dealer;Mazda:service|Mazda:dealer;AHG Gabrisch GmbH;Karoline-Herschel-Str. 2;Hemmingen;30966;+49 511 8741940;service@gabrisch.de;https://www.mazda-autohaus-ahg-gabrisch-hemmingen.de;52.31606;9.720755;Car Repair|Car Sales|Parts Sales|Mazda Europe Service;11368;https://www.mazda.de/api/dealers
 ;DE;authorized car service|authorized car dealer;Mazda:service|Mazda:dealer;Autohaus Sayler GmbH & Co.KG;Markusstr. 12;Ulm;89081;+49 731 937890;fsayler@autohaus-sayler.de;https://www.mazda-autohaus-sayler-ulm.de;48.400795;9.94695;Car Repair|Car Sales|Parts Sales|Mazda Europe Service;11369;https://www.mazda.de/api/dealers
 ;DE;authorized car service|authorized car dealer;Mazda:service|Mazda:dealer;Autohaus Grasdanner GmbH;Gewerbering 12a;Holzkirchen;83607;+49 8024 4777470;info@autohaus-grasdanner.de;https://www.mazda-autohaus-grasdanner-holzkirchen.de;47.88079;11.7175694;Car Repair|Car Sales|Parts Sales|Mazda Europe Service;11370;https://www.mazda.de/api/dealers
 ;DE;authorized car service|authorized car dealer;Mazda:service|Mazda:dealer;Moll Automobile GmbH & Co.KG;Mainstr. 3;Euskirchen;53879;+49 2251 128380;Info@moll-automobile.de;https://www.mazda-autohaus-moll-euskirchen.de;50.65622;6.769222;Car Repair|Car Sales|Parts Sales|Mazda Europe Service;11371;https://www.mazda.de/api/dealers
 ;DE;authorized car service|authorized car dealer;Mazda:service|Mazda:dealer;Autohaus Schäffer GmbH;Esslinger Straße 13;Göppingen;73037;+49 7161 97650;b.schaeffer@mazda-schaeffer.de;https://www.mazda-autohaus-schaeffer-goeppingen.de;48.69701;9.683581;Car Repair|Car Sales|Mazda Europe Service;11372;https://www.mazda.de/api/dealers
 ;DE;authorized car service|authorized car dealer;Mazda:service|Mazda:dealer;Autohaus Dreischkamp;Dreischkamp 23;Coesfeld;48653;+49 2541 928340;info@al-auto.de;https://www.mazda-autohaus-dreischkamp-coesfeld.de;51.9258423;7.16623;Car Repair|Car Sales|Parts Sales|Mazda Europe Service;11373;https://www.mazda.de/api/dealers
 ;DE;authorized car service|authorized car dealer;Mazda:service|Mazda:dealer;Autohaus Dähn GmbH & Co. KG;Am Umspannwerk 6;Prenzlau;17291;+49 3984 85930;autohausdaehn@autohausdaehn.de;https://www.mazda-autohaus-daehn-prenzlau.de;53.3434753;13.8696566;Car Repair|Car Sales|Parts Sales|Mazda Europe Service;11374;https://www.mazda.de/api/dealers
 ;DE;authorized car service;Mazda:service;Berthold Regett GmbH;Westenholzer Str. 103;Delbrück;33129;+49 2944 97660;info@autohaus-regett.de;https://www.mazda-service-regett-delbrueck.de;51.756115;8.469678;Car Repair|Parts Sales|Mazda Europe Service;11376;https://www.mazda.de/api/dealers
 ;DE;authorized car service|authorized car dealer;Mazda:service|Mazda:dealer;Autohaus Wankmüller GmbH;Böblinger Str. 35-37;Böblingen;71034;+49 7031 761980;Info@autohaus-wankmueller.com;https://www.mazda-autohaus-wankmueller-boeblingen.de;48.6891747;8.960577;Car Repair|Car Sales|Parts Sales|Mazda Europe Service;11377;https://www.mazda.de/api/dealers
 ;DE;authorized car service|authorized car dealer;Mazda:service|Mazda:dealer;Auto-Zentrum Grathwohl & Friebel GmbH;Dornierstr. 59;Tuttlingen;78532;+49 7461 927710;p.friebel@autozentrum-tut.de;https://www.mazda-autozentrum-grathwohl-friebel-tuttlingen.de;47.9661179;8.785112;Car Repair|Car Sales|Parts Sales|Mazda Europe Service;11378;https://www.mazda.de/api/dealers
 ;DE;authorized car service|authorized car dealer;Mazda:service|Mazda:dealer;Mattern GmbH;Bechterdisser Straße 37;Bielefeld;33719;+49 521 1639000;mazda.bielefeld@auto-mattern.de;https://www.mazda-autohaus-mattern-bielefeld.de;52.01366;8.62117;Car Repair|Car Sales|Parts Sales|Mazda Europe Service;11379;https://www.mazda.de/api/dealers
 ;DE;authorized car service|authorized car dealer;Mazda:service|Mazda:dealer;Piper Automobile GmbH;Sollingweg 28;Minden;32427;+49 571 82948400;info@piper-automobile.de;https://www.mazda-automobile-piper-minden.de;52.3082657;8.841891;Car Repair|Car Sales|Mazda Europe Service;11380;https://www.mazda.de/api/dealers
 ;DE;authorized car service|authorized car dealer;Mazda:service|Mazda:dealer;Häusler Automobil GmbH & Co. KG;Landshuter Straße 57;Erding;85435;+49 8122 97850;gerhard.schweiger@haeusler.de;https://www.mazda-autohaus-haeusler-erding.de;48.30945;11.9157953;Car Repair|Car Sales|Parts Sales|Mazda Europe Service;11381;https://www.mazda.de/api/dealers
 ;DE;authorized car service|authorized car dealer;Mazda:service|Mazda:dealer;BOB Automobile Nord GmbH;Konrad-Adenauer-Ring 27;Hagen;58135;+49 2331 375760;kundenbetreuung@bob-automobile.de;https://www.mazda-autohaus-boden-hagen.de;51.3478622;7.441931;Car Repair|Car Sales|Mazda Europe Service;11382;https://www.mazda.de/api/dealers
 ;DE;authorized car service|authorized car dealer;Mazda:service|Mazda:dealer;Autohaus Zückner GmbH&Co.KG;Gildestrasse 5;Roth;91154;+49 9171 97940;juergen.zueckner@autohaus-zueckner.de;https://www.mazda-autohaus-zueckner-roth.de;49.2461739;11.1135063;Car Repair|Car Sales|Mazda Europe Service;11383;https://www.mazda.de/api/dealers
 ;DE;authorized car service|authorized car dealer;Mazda:service|Mazda:dealer;Autohaus Engelbart GmbH&Co.KG;Annenheider Straße 185;Delmenhorst;27755;+49 4221 4216100;mazda@autohaus-engelbart.de;https://www.mazda-autohaus-engelbart-delmenhorst.de;53.0258255;8.651721;Car Repair|Car Sales|Mazda Europe Service;11384;https://www.mazda.de/api/dealers
 ;DE;authorized car service|authorized car dealer;Mazda:service|Mazda:dealer;Häusler Automobil GmbH & Co. KG;Maisacher Straße 127;Fürstenfeldbruck;82256;+49 8141 40060;info.ffb@haeusler.de;https://www.mazda-autohaus-haeusler-fuerstenfeldbruck.de;48.1935349;11.2558069;Car Repair|Car Sales|Parts Sales|Mazda Europe Service;11385;https://www.mazda.de/api/dealers
 ;DE;authorized car service|authorized car dealer;Mazda:service|Mazda:dealer;M.C.F. Motor Company Fahrzeugvertriebs GmbH;Großbeerenstr. 249-253;Potsdam;14480;+49 331 649810;info@motor-company.de;https://www.mazda-autohaus-motorcompany-potsdam.de;52.38108;13.12907;Car Repair|Car Sales|Mazda Europe Service;11386;https://www.mazda.de/api/dealers
 ;DE;authorized car service|authorized car dealer;Mazda:service|Mazda:dealer;Autohaus Stüben & Ortmann GmbH;Heinrich-Hertz-Str. 3;Anklam;17389;+49 3971 211537;info@stueben-ortmann.de;https://www.mazda-autohaus-stueben-anklam.de;53.83688;13.71513;Car Repair|Car Sales|Mazda Europe Service;11388;https://www.mazda.de/api/dealers
 ;DE;authorized car service|authorized car dealer;Mazda:service|Mazda:dealer;Nieberg & Steffens GmbH & Co. KG;Wiedenbrücker Str. 40;Gütersloh;33332;+49 5241 307210;info-gt@nieberg-steffens.de;https://www.mazda-autohaus-nieberg-steffens-guetersloh.de;51.8919;8.36473;Car Repair|Car Sales|Mazda Europe Service;11389;https://www.mazda.de/api/dealers
 ;DE;authorized car service|authorized car dealer;Mazda:service|Mazda:dealer;Settele KFZ GmbH & Co. KG;Reuttier Str. 105;Neu-Ulm;89231;+49 731 20559950;info@settele-kfz.de;https://www.mazda-autohaus-settele-neu-ulm.de;48.38538;10.01967;Car Repair|Car Sales|Mazda Europe Service;11390;https://www.mazda.de/api/dealers
 ;DE;authorized car service|authorized car dealer;Mazda:service|Mazda:dealer;Autohaus Sat GmbH & Co. KG;Logaer Weg 40;Leer;26789;+49 491 5811;info@autohaus-sat.de;https://www.mazda-autohaus-sat-leer.de;53.24258;7.46742;Car Repair|Car Sales|Mazda Europe Service;11392;https://www.mazda.de/api/dealers
 ;DE;authorized car service|authorized car dealer;Mazda:service|Mazda:dealer;Autohaus Büdenbender Dillenburg GmbH;Hauptstraße 142;Dillenburg;35684;+49 2771 330120;info@buedenbender.de;https://www.mazda-autohaus-buedenbender-dillenburg.de;50.77742;8.30804;Car Repair|Car Sales|Parts Sales|Mazda Europe Service;11393;https://www.mazda.de/api/dealers
 ;DE;authorized car service|authorized car dealer;Mazda:service|Mazda:dealer;TLS GmbH;Carl-Benz-Straße 5;Bornheim;53332;+49 2222 8279210;info@tls-bornheim.de;https://www.mazda-autohaus-tls-bornheim.de;50.7612343;7.02839;Car Repair|Car Sales;11394;https://www.mazda.de/api/dealers
 ;DE;authorized car service|authorized car dealer;Mazda:service|Mazda:dealer;Autohaus Hartmann GmbH;Zum Kaiserbusch 15;Münster;48165;+49 251 618070;schroeder@autowelt-hartmann.de;https://www.mazda-autohaus-hartmann-muenster.de;51.91077;7.686923;Car Repair|Car Sales|Parts Sales|Mazda Europe Service;11395;https://www.mazda.de/api/dealers
 ;DE;authorized car service|authorized car dealer;Mazda:service|Mazda:dealer;autoforum Schiermeier GmbH & Co. KG;Pagenstecherstraße 63;Osnabrück;49090;+49 541 692500;zentrale@schiermeier.de;https://www.mazda-autohaus-schiermeier-osnabrueck.de;52.2890625;8.02738;Car Repair|Car Sales;11396;https://www.mazda.de/api/dealers
 ;DE;authorized car service|authorized car dealer;Mazda:service|Mazda:dealer;Autohaus Kummich GmbH;Fürther Str. 210;Nürnberg;90429;+49 911 324400;nuernberg@kummich.de;https://www.mazda-autohaus-kummich-nuernberg.de;49.4582367;11.0354843;Car Repair|Car Sales|Mazda Europe Service;11397;https://www.mazda.de/api/dealers
 ;DE;authorized car service|authorized car dealer;Mazda:service|Mazda:dealer;Auto Bebion Nürtingen GmbH;Siemensstraße 12;Frickenhausen;72636;+49 7022 943460;info@auto-bebion.de;https://www.mazda-autohaus-bebion-frickenhausen.de;48.5971222;9.359285;Car Repair|Car Sales|Parts Sales;11398;https://www.mazda.de/api/dealers
 ;DE;authorized car service|authorized car dealer;Mazda:service|Mazda:dealer;BOB Automobile Nord GmbH;Freudenbergstraße 25-33;Bochum;44809;+49 234 95770;kundenbetreuung@bob-automobile.de;https://www.mazda-autohaus-witzel-bochum.de/;51.4978752;7.192714;Car Repair|Car Sales;11400;https://www.mazda.de/api/dealers
 ;DE;authorized car service|authorized car dealer;Mazda:service|Mazda:dealer;Autohaus Wessel e.K.;Borringhauser Straße 4;Damme;49401;+49 5491 1667;mail@autohauswessel.de;https://www.mazda-autohaus-wessel-damme.de;52.51899;8.209303;Car Repair|Car Sales|Parts Sales|Mazda Europe Service;14001;https://www.mazda.de/api/dealers
 ;DE;authorized car service|authorized car dealer;Mazda:service|Mazda:dealer;Autohaus Behrens oHG;Halberstädter Chaussee 9;Magdeburg-Ottersleben;39116;+49 391 609200;autohaus-behrens-ohg@t-online.de;https://www.mazda-autohaus-behrens-magdeburg-ottersleben.de;52.0869026;11.56705;Car Repair|Car Sales|Parts Sales|Mazda Europe Service;14013;https://www.mazda.de/api/dealers
 ;DE;authorized car service|authorized car dealer;Mazda:service|Mazda:dealer;Autohaus Horst Weber Inh. Marina Jirsa;Ziolkowskistraße 13;Magdeburg;39126;+49 391 300466;mjirsa@horst-weber-autohaus.de;https://www.mazda-autohaus-weber-magdeburg.de;52.1753;11.6297588;Car Repair|Car Sales|Parts Sales|Mazda Europe Service;14014;https://www.mazda.de/api/dealers
 ;DE;authorized car service|authorized car dealer;Mazda:service|Mazda:dealer;Autohaus Hecker;Friedrichstraße 111;Schönebeck-Elbe;39218;+49 3928 900586;autohaushecker@t-online.de;https://www.mazda-autohaus-hecker-schoenebeck-elbe.de;52.0162926;11.7345467;Car Repair|Car Sales|Parts Sales|Mazda Europe Service;14015;https://www.mazda.de/api/dealers
 ;DE;authorized car service|authorized car dealer;Mazda:service|Mazda:dealer;Autohaus Wilke GmbH;Körbelitzer Straße 10;Magdeburg;39126;+49 391 63577315;info@autohaus-wilke.de;https://www.mazda-autohaus-wilke-magdeburg.de;52.1717834;11.6631269;Car Repair|Car Sales|Parts Sales|Mazda Europe Service;14016;https://www.mazda.de/api/dealers
 ;DE;authorized car service|authorized car dealer;Mazda:service|Mazda:dealer;Autohaus am Steinbruch GmbH;Am Steinbruch 1;Staßfurt;39418;+49 3925 92730;Autohaus-Am-Steinbruch@t-online.de;https://www.mazda-autohaus-steinbruch-stassfurt.de;51.86661;11.6039267;Car Repair|Car Sales|Parts Sales|Mazda Europe Service;14018;https://www.mazda.de/api/dealers
 ;DE;authorized car service|authorized car dealer;Mazda:service|Mazda:dealer;Falken-Mobile GmbH;Ottostraße 10;Aschersleben;6449;+49 3473 801685;falken-mobile@t-online.de;https://www.mazda-autohaus-falken-aschersleben.de;51.7703133;11.4877377;Car Repair|Car Sales|Parts Sales|Mazda Europe Service;14019;https://www.mazda.de/api/dealers
 ;DE;authorized car service|authorized car dealer;Mazda:service|Mazda:dealer;Autohaus Lehmann GmbH;Laugkfeld 7;Senftenberg;1968;+49 3573 798171;mail@mazda-autohaus-lehmann.de;https://www.mazda-autohaus-lehmann-senftenberg.de;51.52649;14.0160122;Car Repair|Car Sales|Parts Sales|Mazda Europe Service;14022;https://www.mazda.de/api/dealers
 ;DE;authorized car service|authorized car dealer;Mazda:service|Mazda:dealer;Autohaus Manfred Oetjens e.K.;Außenring 2;Torgau;4860;+49 3421 72380;autohaus.oetjens@t-online.de;https://www.mazda-autohaus-oetjens-torgau.de;51.56226;12.97373;Car Repair|Car Sales|Parts Sales|Mazda Europe Service;14023;https://www.mazda.de/api/dealers
 ;DE;authorized car service|authorized car dealer;Mazda:service|Mazda:dealer;Autohaus Böhme e.K.;Annendorfer Straße 100;Lutherstadt-Wittenberg;6886;+49 3491 44670;info@auto-boehme.de;https://www.mazda-autohaus-boehme-lutherstadt-wittenberg.de;51.87971;12.6538744;Car Repair|Car Sales|Parts Sales|Mazda Europe Service;14024;https://www.mazda.de/api/dealers
 ;DE;authorized car service|authorized car dealer;Mazda:service|Mazda:dealer;Automobile Maier GmbH & Co. KG;Industriestraße 17;Deggendorf;94469;+49 991 9989360;deg@mazda-autohaus-maier.de;https://www.mazda-automobile-maier-deggendorf.de;48.85119;12.9608994;Car Repair|Car Sales|Parts Sales|Mazda Europe Service;14029;https://www.mazda.de/api/dealers
 ;DE;authorized car service|authorized car dealer;Mazda:service|Mazda:dealer;Autohaus Fritsche NL der ACO AutoCenter Oberlausitz AG;Hauptstraße 90d;Grossschönau;2779;+49 35841 3310;info@mazda-fritsche.de;https://www.mazda-autohaus-fritsche-grossschoenau.de;50.894146;14.6737442;Car Repair|Car Sales|Parts Sales|Mazda Europe Service;14030;https://www.mazda.de/api/dealers
 ;DE;authorized car service|authorized car dealer;Mazda:service|Mazda:dealer;BOB Automobile Nord GmbH;Langemarckstraße 30;Essen;45141;+49 201 294850;kundenbetreuung@bob-automobile.de;https://www.mazda-autohaus-boden-essen-nordviertel.de;51.4718323;7.053352;Car Repair|Car Sales|Parts Sales|Mazda Europe Service;14035;https://www.mazda.de/api/dealers
 ;DE;authorized car service|authorized car dealer;Mazda:service|Mazda:dealer;Autohaus Raber GmbH & Co. KG;Nachtweide 14;Neustadt an der Weinstraße;67433;+49 6321 130150;info@autohaus-raber.de;https://www.mazda-autohaus-raber-neustadt-an-der-weinstrasse.de;49.3485832;8.175655;Car Repair|Car Sales|Parts Sales|Mazda Europe Service;14038;https://www.mazda.de/api/dealers
 ;DE;authorized car service|authorized car dealer;Mazda:service|Mazda:dealer;Automobile Hohenfeld GmbH;Kleiststraße 81;Dinslaken;46539;+49 2064 52679;automobile-hohenfeld@t-online.de;https://www.mazda-autohaus-hohenfeld-dinslaken.de;51.5663834;6.752773;Car Repair|Car Sales|Parts Sales|Mazda Europe Service;14041;https://www.mazda.de/api/dealers
 ;DE;authorized car service|authorized car dealer;Mazda:service|Mazda:dealer;Klaus Kocks GmbH;Zinkhüttenstraße 27;Mülheim a.d. Ruhr;45473;+49 208 459650;info@autohaus-kocks.de;https://www.mazda-autohaus-kocks-muelheimanderruhr.de;51.43862;6.884124;Car Repair|Car Sales|Parts Sales|Mazda Europe Service;14042;https://www.mazda.de/api/dealers
 ;DE;authorized car service|authorized car dealer;Mazda:service|Mazda:dealer;Autohaus Koch & Herrmann GmbH;Langenfelder Straße 6;Köthen;6366;+49 3496 505790;info@mazda-autohaus-koch-herrmann.de;https://www.mazda-autohaus-koch-koethen.de;51.74547;11.94761;Car Repair|Car Sales|Parts Sales|Mazda Europe Service;14043;https://www.mazda.de/api/dealers
 ;DE;authorized car service|authorized car dealer;Mazda:service|Mazda:dealer;Autohaus Rathenow Gebr. K. GmbH;Genthiner Straße 61;Rathenow;14712;+49 3385 4949290;info@autohaus-rathenow.de;https://www.mazda-autohaus-rathenow-rathenow.de;52.5993423;12.2970047;Car Repair|Car Sales|Parts Sales|Mazda Europe Service;14044;https://www.mazda.de/api/dealers
 ;DE;authorized car service|authorized car dealer;Mazda:service|Mazda:dealer;Autohaus Justus GmbH;Hildesheimer Straße 23;Hildesheim;31137;+49 5121 64488;info@ahjustus.de;https://www.mazda-autohaus-justus-hildesheim.de;52.15788;9.914241;Car Repair|Car Sales|Parts Sales|Mazda Europe Service;14045;https://www.mazda.de/api/dealers
 ;DE;authorized car service|authorized car dealer;Mazda:service|Mazda:dealer;Autohaus Südring Datteln GmbH;Südring 231;Datteln;45711;+49 2363 2636;info@autohaus-suedring-datteln.de;https://www.mazda-autohaus-suedring-datteln.de;51.6524849;7.348329;Car Repair|Car Sales|Parts Sales|Mazda Europe Service;14059;https://www.mazda.de/api/dealers
 ;DE;authorized car service|authorized car dealer;Mazda:service|Mazda:dealer;Autohaus Jürgen Beilfuss GmbH;An Der Ihle 22;Ritterhude;27721;+49 421 63899230;murken@autohaus-beilfuss.de;https://www.mazda-autohaus-beilfuss-ritterhude.de;53.1816635;8.710163;Car Repair|Car Sales|Parts Sales|Mazda Europe Service;14064;https://www.mazda.de/api/dealers
 ;DE;authorized car service|authorized car dealer;Mazda:service|Mazda:dealer;Autohaus Ottens GmbH;Am Umspannwerk 3;Sottrum;27367;+49 4264 83010;info@autohaus-ottens.de;https://www.mazda-autohaus-ottens-sottrum.de;53.1148338;9.244518;Car Repair|Car Sales|Parts Sales|Mazda Europe Service;14065;https://www.mazda.de/api/dealers
 ;DE;authorized car service|authorized car dealer;Mazda:service|Mazda:dealer;Autohaus Schäfer GmbH;Robert-Blum-Straße 41-43;Leverkusen;51373;+49 214 868690;info@autohaus-schaefer-gmbh.de;https://www.mazda-autohaus-schaefer-leverkusen.de;51.0506248;7.005111;Car Repair|Car Sales|Parts Sales|Mazda Europe Service;14071;https://www.mazda.de/api/dealers
 ;DE;authorized car service;Mazda:service;Autohaus Preuß GmbH;Gewerbestraße 3;Hollenstedt;21279;+49 4165 22120;buchhaltung-verkauf@autohauspreuss.de;https://www.mazda-service-preuss-hollenstedt.de;53.36278;9.709323;Car Repair|Parts Sales|Mazda Europe Service;14073;https://www.mazda.de/api/dealers
 ;DE;authorized car service|authorized car dealer;Mazda:service|Mazda:dealer;Autohaus Eckhof GmbH & Co. KG;Nord-West-Ring 10;Zeven;27404;+49 4281 93400;info@autohaus-eckhof.de;https://www.mazda-autohaus-eckhof-zeven.de;53.3063;9.269864;Car Repair|Car Sales|Parts Sales|Mazda Europe Service;14074;https://www.mazda.de/api/dealers
 ;DE;authorized car service|authorized car dealer;Mazda:service|Mazda:dealer;Autohaus Lohmann e.K.;Hagener Straße 456;Kreuztal;57223;+49 2732 89600;mazda-lohmann@t-online.de;https://www.mazda-autohaus-lohmann-kreuztal.de;51.0064659;7.980945;Car Repair|Car Sales|Parts Sales|Mazda Europe Service;14081;https://www.mazda.de/api/dealers
 ;DE;authorized car service|authorized car dealer;Mazda:service|Mazda:dealer;Auto Walther e.K. Inh. Jens Walther;Am Rotvorwerk 10;Freiberg;9599;+49 37322 8630;info@auto-walther.de;https://www.mazda-auto-walther-freiberg.de;50.8805428;13.32513;Car Repair|Car Sales|Parts Sales|Mazda Europe Service;14083;https://www.mazda.de/api/dealers
 ;DE;authorized car service|authorized car dealer;Mazda:service|Mazda:dealer;Autohaus Langer GmbH;Trützschlerstraße 4a;Chemnitz-Rabenstein;9117;+49 371 8102752;verkauf@autohaus-langer.de;https://www.mazda-autohaus-langer-chemnitz-rabenstein.de;50.832283;12.8357162;Car Repair|Car Sales|Parts Sales|Mazda Europe Service;14084;https://www.mazda.de/api/dealers
 ;DE;authorized car service|authorized car dealer;Mazda:service|Mazda:dealer;Autohaus Schulze & Pohle e.K.. Inh. Roland Pohle;Seiferitzer Allee 8;Meerane;8393;+49 3764 2249;info@schulzepohle.de;https://www.mazda-autohaus-schulze-pohle-meerane.de;50.8328743;12.4483862;Car Repair|Car Sales|Parts Sales|Mazda Europe Service;14088;https://www.mazda.de/api/dealers
 ;DE;authorized car service|authorized car dealer;Mazda:service|Mazda:dealer;Autohaus Piske GmbH;Ahlumer Straße 86;Wolfenbüttel;38302;+49 5331 97020;service@piske.eu;https://www.mazda-autohaus-piske-wolfenbuettel.de;52.16828;10.56628;Car Repair|Car Sales|Parts Sales|Mazda Europe Service;14094;https://www.mazda.de/api/dealers
 ;DE;authorized car service|authorized car dealer;Mazda:service|Mazda:dealer;Auto-Vertrieb Kielsburg GmbH;Robert-Koch-Straße 8-10;Husum;25813;+49 4841 96970;info@avk-husum.de;https://www.mazda-autovertrieb-kielsburg-husum.de;54.4912453;9.080351;Car Repair|Car Sales|Parts Sales|Mazda Europe Service;14098;https://www.mazda.de/api/dealers
 ;DE;authorized car service;Mazda:service;Autohaus Stien GmbH;Dörpstroot 27;Bergenhusen;24861;+49 4885 9030;verwaltung@autohaus-stien.de;https://www.mazda-autohaus-stien-bergenhusen.de;54.3764725;9.310354;Car Repair|Parts Sales|Mazda Europe Service;14100;https://www.mazda.de/api/dealers
 ;DE;authorized car service|authorized car dealer;Mazda:service|Mazda:dealer;Meister Ehrich. Inh. Kai Ehrich e.K.;Kauslundhof 8;Flensburg;24943;+49 461 62277;MEISTER-EHRICH@T-ONLINE.DE;https://www.mazda-autohaus-ehrich-flensburg.de;54.8011169;9.485515;Car Repair|Car Sales|Parts Sales|Mazda Europe Service;14101;https://www.mazda.de/api/dealers
 ;DE;authorized car service|authorized car dealer;Mazda:service|Mazda:dealer;Autohaus Martin GmbH;Altenburger Straße 65;Schmölln;4626;+49 34491 22422;Manson@auto-Martin-SLN.de;https://www.mazda-autohaus-martin-schmoelln.de;50.90437;12.3610668;Car Repair|Car Sales|Parts Sales|Mazda Europe Service;14103;https://www.mazda.de/api/dealers
 ;DE;authorized car service|authorized car dealer;Mazda:service|Mazda:dealer;Autohaus Jokisch. Andreas Jokisch e.K.;Gaswerkstraße 1;Gera;7546;+49 365 437270;info@autohaus-jokisch.de;https://www.mazda-autohaus-jokisch-gera.de;50.8927269;12.078125;Car Repair|Car Sales|Parts Sales|Mazda Europe Service;14104;https://www.mazda.de/api/dealers
 ;DE;authorized car service|authorized car dealer;Mazda:service|Mazda:dealer;Autohaus Purfürst GmbH & Co. KG;Stauseestraße 42-44;Schleiz;7907;+49 36647 33333;info@autohaus-purfuerst.de;https://www.mazda-autohaus-purfuerst-schleiz.de;50.527874;11.7503891;Car Repair|Car Sales|Parts Sales|Mazda Europe Service;14107;https://www.mazda.de/api/dealers
 ;DE;authorized car service|authorized car dealer;Mazda:service|Mazda:dealer;Hüttner & Püschel Autohaus GmbH;Mittlerer Watzenbach 14;Saalfeld;7318;+49 3671 531414;info@autohaus-huettner-pueschel.de;https://www.mazda-autohaus-huettner-saalfeld.de;50.6533356;11.3412037;Car Repair|Car Sales|Parts Sales|Mazda Europe Service;14108;https://www.mazda.de/api/dealers
 ;DE;authorized car service|authorized car dealer;Mazda:service|Mazda:dealer;Auto Zacheus e.K. Inhaber Markus Zacheus;Hauptstraße 8;Rottenburg;84056;+49 8781 1565;info@auto-zacheus.de;https://www.mazda-autohaus-zacheus-rottenburg.de;48.69278;12.0002689;Car Repair|Car Sales|Parts Sales|Mazda Europe Service;14110;https://www.mazda.de/api/dealers
 ;DE;authorized car service|authorized car dealer;Mazda:service|Mazda:dealer;Autohaus Gollan GmbH;Warendorfer Straße 19-21;Hamm;59075;+49 2381 75022;mazda-gollan@web.de;https://www.mazda-autohaus-gollan-hamm.de;51.69754;7.775242;Car Repair|Car Sales|Parts Sales|Mazda Europe Service;14111;https://www.mazda.de/api/dealers
 ;DE;authorized car service|authorized car dealer;Mazda:service|Mazda:dealer;Autohaus Hans-Jürgen Steinhagen GmbH;Holtheimer Straße 1;Lichtenau;33165;+49 5295 500;info@autohaus-steinhagen.de;https://www.mazda-autohaus-steinhagen-lichtenau.de;51.61162;8.89455;Car Repair|Car Sales|Parts Sales|Mazda Europe Service;14113;https://www.mazda.de/api/dealers
 ;DE;authorized car service|authorized car dealer;Mazda:service|Mazda:dealer;Autohaus Vollmari GmbH;Greifswalder Straße 7;Paderborn;33106;+49 5251 17555;info@autohaus-vollmari.de;https://www.mazda-autohaus-vollmari-paderborn.de;51.70054;8.72545;Car Repair|Car Sales|Parts Sales|Mazda Europe Service;14114;https://www.mazda.de/api/dealers
 ;DE;authorized car service|authorized car dealer;Mazda:service|Mazda:dealer;Autohaus Kilger e.K.;Lindenweg 54;Regen;94209;+49 9921 9717050;info@autohaus-kilger.de;https://www.mazda-autohaus-kilger-regen.de;48.98357;13.1343088;Car Repair|Car Sales|Parts Sales|Mazda Europe Service;14115;https://www.mazda.de/api/dealers
 ;DE;authorized car service|authorized car dealer;Mazda:service|Mazda:dealer;Autohaus Heinrich Stumpf GmbH;Tiergartenstraße 12;Heppenheim;64646;+49 6252 99630;info@autocentrum-stumpf.de;https://www.mazda-autohaus-stumpf-heppenheim.de;49.64305;8.617628;Car Repair|Car Sales|Parts Sales|Mazda Europe Service;14116;https://www.mazda.de/api/dealers
 ;DE;authorized car service|authorized car dealer;Mazda:service|Mazda:dealer;Dirk Schneider GmbH;Schachtstraße 1;Sondershausen;99706;+49 3632 701545;info@sdh-auto.de;https://www.mazda-autohaus-schneider-sondershausen.de;51.385376;10.8493443;Car Repair|Car Sales|Parts Sales|Mazda Europe Service;14117;https://www.mazda.de/api/dealers
 ;DE;authorized car service|authorized car dealer;Mazda:service|Mazda:dealer;Autohaus Lehnert GmbH;Mariental 1;Barchfeld-Immelborn;36456;+49 36961 4770;info@lehnertcars.de;https://www.mazda-autohaus-lehnert-barchfeld-immelborn.de;50.80498;10.329195;Car Repair|Car Sales|Parts Sales|Mazda Europe Service;14119;https://www.mazda.de/api/dealers
 ;DE;authorized car service|authorized car dealer;Mazda:service|Mazda:dealer;Autohaus Kirschstein e.K.;Kasseler Straße 215a;Eisenach;99817;+49 3691 85750;verkauf@kirschstein.de;https://www.mazda-autohaus-kirschstein-eisenach.de;50.995018;10.2929916;Car Repair|Car Sales|Parts Sales|Mazda Europe Service;14120;https://www.mazda.de/api/dealers
 ;DE;authorized car service|authorized car dealer;Mazda:service|Mazda:dealer;AHB Automobile GmbH;Rudloffstraße 24;Gotha;99867;+49 3621 709030;verkauf@ahb-automobile.de;https://www.mazda-autohaus-ahb-gotha.de;50.9245;10.71729;Car Repair|Car Sales|Parts Sales|Mazda Europe Service;14121;https://www.mazda.de/api/dealers
 ;DE;authorized car service|authorized car dealer;Mazda:service|Mazda:dealer;Autohaus Andreas Schulze GmbH;Am Lützer Feld 10;Arnstadt;99310;+49 3628 56060;info@schulze-automobile.de;https://www.mazda-autohaus-schulze-arnstadt.de;50.85919;10.9545841;Car Repair|Car Sales|Parts Sales|Mazda Europe Service;14122;https://www.mazda.de/api/dealers
 ;DE;authorized car service;Mazda:service;Autohaus Barth OHG;Bahnhofstraße 29;Friedrichroda;99894;+49 3623 303030;info@barth-automobile.de;https://www.mazda-autohaus-barth-friedrichroda.de;50.8596;10.5731783;Car Repair|Parts Sales|Mazda Europe Service;14123;https://www.mazda.de/api/dealers
 ;DE;authorized car service|authorized car dealer;Mazda:service|Mazda:dealer;Autohaus Schenk GmbH;Auf Dem Mittelfeld 6;Ilmenau;98693;+49 3677 64340;autohaus-schenk@t-online.de;https://www.mazda-autohaus-schenk-ilmenau.de;50.69084;10.9247065;Car Repair|Car Sales|Parts Sales|Mazda Europe Service;14125;https://www.mazda.de/api/dealers
 ;DE;authorized car service|authorized car dealer;Mazda:service|Mazda:dealer;Autohaus Wiermann GmbH;Rheiner Straße 239;Ibbenbüren;49479;+49 5451 78111;wiermann@t-online.de;https://www.mazda-autohaus-wiermann-ibbenbueren.de;52.300808;7.691846;Car Repair|Car Sales|Parts Sales|Mazda Europe Service;14126;https://www.mazda.de/api/dealers
 ;DE;authorized car service;Mazda:service;Auto Ricker. Inh. Christoph Ricker;Rübbelhauk 1;Berge;49626;+49 5435 5022;auto-ricker@t-online.de;https://www.mazda-autohaus-ricker-berge.de;52.62;7.74300766;Car Repair|Parts Sales|Mazda Europe Service;14127;https://www.mazda.de/api/dealers
 ;DE;authorized car service|authorized car dealer;Mazda:service|Mazda:dealer;Auto Rieser GmbH;Bahnhofstraße 31;Peiting;86971;+49 8861 5817;richard.rieser@auto-rieser.de;https://www.mazda-autohaus-rieser-peiting.de;47.79277;10.93528;Car Repair|Car Sales|Parts Sales|Mazda Europe Service;14129;https://www.mazda.de/api/dealers
 ;DE;authorized car service|authorized car dealer;Mazda:service|Mazda:dealer;Autohaus Soucek. Inh. Miroslav Soucek;Frankfurter Ring 143;München;80807;+49 89 4522570;mail@autohaus-soucek.de;https://www.mazda-autohaus-soucek-muenchen.de;48.18814;11.5910406;Car Repair|Car Sales|Parts Sales|Mazda Europe Service;14131;https://www.mazda.de/api/dealers
 ;DE;authorized car service|authorized car dealer;Mazda:service|Mazda:dealer;Auto Graf GmbH;Weilbachweg 2;Münsing;82541;+49 8177 93040;zentrale@auto-graf-gmbh.de;https://www.mazda-autohaus-graf-muensing.de;47.9041519;11.3774881;Car Repair|Car Sales|Parts Sales|Mazda Europe Service;14132;https://www.mazda.de/api/dealers
 ;DE;authorized car service|authorized car dealer;Mazda:service|Mazda:dealer;Autohaus Czasny GmbH;Gewerbestraße 58;Herrsching;82211;+49 8152 37983;autohaus@czasny.de;https://www.mazda-autohaus-czasny-herrsching.de;48.00476;11.17373;Car Repair|Car Sales|Parts Sales|Mazda Europe Service;14135;https://www.mazda.de/api/dealers
 ;DE;authorized car service|authorized car dealer;Mazda:service|Mazda:dealer;Autohaus Konietzny GmbH;Mittenwalder Straße 22;Garmisch Partenkirchen;82467;+49 8821 51017;info@auto-konietzny.de;https://www.mazda-autohaus-konietzny-garmischpartenkirchen.de;47.48774;11.11538;Car Repair|Car Sales|Parts Sales|Mazda Europe Service;14136;https://www.mazda.de/api/dealers
 ;DE;authorized car service|authorized car dealer;Mazda:service|Mazda:dealer;Autohaus Schmitz GmbH;Kaiserstraße 127;Köln;51145;+49 2203 3697810;info@automobile-schmitz.com;https://www.mazda-autohaus-schmitz-koeln.de;50.8810539;7.068948;Car Repair|Car Sales|Parts Sales|Mazda Europe Service;14140;https://www.mazda.de/api/dealers
 ;DE;authorized car service|authorized car dealer;Mazda:service|Mazda:dealer;Autohaus Kraban GmbH;Augsburger Straße 55;Chemnitz;9126;+49 371 533522;info@autohaus-kraban.de;https://www.mazda-autohaus-kraban-chemnitz.de;50.81169;12.9406662;Car Repair|Car Sales|Parts Sales|Mazda Europe Service;14142;https://www.mazda.de/api/dealers
 ;DE;authorized car service|authorized car dealer;Mazda:service|Mazda:dealer;Autohaus SING OHG;Ferdinand-Porsche-Straße 1;Aalen;73457;+49 7365 922230;info@sing-aalen.de;https://www.mazda-autohaus-sing-aalen.de;48.8214226;10.0521469;Car Repair|Car Sales|Parts Sales|Mazda Europe Service;14143;https://www.mazda.de/api/dealers
 ;DE;authorized car service|authorized car dealer;Mazda:service|Mazda:dealer;Autohaus Bischoff GmbH;Boostedter Straße 368;Neumünster;24539;+49 4321 840090;info@bischoff-nms.de;https://www.mazda-autohaus-bischoff-neumuenster.de;54.0517044;10.0021238;Car Repair|Car Sales|Parts Sales|Mazda Europe Service;14144;https://www.mazda.de/api/dealers
 ;DE;authorized car service|authorized car dealer;Mazda:service|Mazda:dealer;Auto Bienlein GmbH & Co. KG;Joseph-Weiermann-Straße 2;Burgkunstadt;96224;+49 9572 3616;Info@auto-bienlein.de;https://www.mazda-autohaus-bienlein-burgkunstadt.de;50.1410561;11.2408857;Car Repair|Car Sales|Parts Sales|Mazda Europe Service;14146;https://www.mazda.de/api/dealers
 ;DE;authorized car service|authorized car dealer;Mazda:service|Mazda:dealer;Autohaus Bäckmann GmbH;Boltensternstraße 128;Köln;50735;+49 221 97720211;info@autohaus-baeckmann.de;https://www.mazda-autohaus-baeckmann-sassert-koeln.de;50.975;6.974328;Car Repair|Car Sales|Parts Sales|Mazda Europe Service;14148;https://www.mazda.de/api/dealers
 ;DE;authorized car service|authorized car dealer;Mazda:service|Mazda:dealer;Autowelt F. Dietzinger;Straubinger Straße 5;Landshut;84030;+49 871 974730;florian.dietzinger@autowelt-dietzinger.de;https://www.mazda-autohaus-dietzinger-landshut.de;48.56163;12.13786;Car Repair|Car Sales|Parts Sales|Mazda Europe Service;14151;https://www.mazda.de/api/dealers
 ;DE;authorized car service|authorized car dealer;Mazda:service|Mazda:dealer;Auto Eder München ZNL d. Auto Eder GmbH;Friedenstraße 18a;München;81671;+49 89 88949460;muenchen@auto-eder.de;https://www.mazda-autohaus-eder-muenchen.de;48.1270752;11.607131;Car Repair|Car Sales|Mazda Europe Service;14154;https://www.mazda.de/api/dealers
 ;DE;authorized car service|authorized car dealer;Mazda:service|Mazda:dealer;Horst Wilhelm Automobile GmbH & Co. KG;Weidehorst 2;Hüllhorst;32609;+49 5744 929292;info@auto-wilhelm.de;https://www.mazda-autohaus-wilhelm-huellhorst.de;52.2517967;8.699229;Car Repair|Car Sales|Parts Sales|Mazda Europe Service;14155;https://www.mazda.de/api/dealers
 ;DE;authorized car service|authorized car dealer;Mazda:service|Mazda:dealer;Autohaus Reitinger GmbH;Lengfelder Straße 40;Teugn;93356;+49 9405 95390;info@autohaus-reitinger.de;https://www.mazda-autohaus-reitinger-teugn.de;48.90021;12.00858;Car Repair|Car Sales|Parts Sales|Mazda Europe Service;14162;https://www.mazda.de/api/dealers
 ;DE;authorized car service|authorized car dealer;Mazda:service|Mazda:dealer;Autohaus Lessingstraße GmbH;Lessingstraße 12;Oberhausen;46149;+49 208 3099330;info@al-auto.de;https://mazda.al-auto.de/;51.49705;6.83421;Car Repair|Car Sales|Parts Sales|Mazda Europe Service;14164;https://www.mazda.de/api/dealers
 ;DE;authorized car service|authorized car dealer;Mazda:service|Mazda:dealer;F. M. Henseler GmbH;W. - Seelenbinder-Straße 6;Schwedt;16303;+49 3332 434310;henseler@t-online.de;https://www.mazda-autohaus-henseler-schwedt.de;53.07286;14.25169;Car Repair|Car Sales|Parts Sales|Mazda Europe Service;14165;https://www.mazda.de/api/dealers
 ;DE;authorized car service|authorized car dealer;Mazda:service|Mazda:dealer;Autohaus Helmut Eisele Inh. A. Wind e.K.;Kiesgräble 4;Langenau;89129;+49 7345 5248;autohaus.helmut.eisele@t-online.de;https://www.mazda-autohaus-eisele-langenau.de;48.49304;10.10733;Car Repair|Car Sales|Parts Sales|Mazda Europe Service;14167;https://www.mazda.de/api/dealers
 ;DE;authorized car service|authorized car dealer;Mazda:service|Mazda:dealer;Autohaus Hinrichsen GmbH;Syker Straße 90;Stuhr;28816;+49 421 809570;mazda@hinrichsen.de;https://www.mazda-autohaus-hinrichsen-stuhr.de;53.00159;8.78865;Car Repair|Car Sales|Parts Sales|Mazda Europe Service;14168;https://www.mazda.de/api/dealers
 ;DE;authorized car service|authorized car dealer;Mazda:service|Mazda:dealer;Autohaus Heide & Merolt GmbH;Berliner Straße 64;Bad Liebenwerda;4924;+49 35341 4980;enrico.heide@heide-merolt.de;https://www.mazda-autohaus-heide-merolt-bad-liebenwerda.de;51.52972;13.3978;Car Repair|Car Sales|Parts Sales|Mazda Europe Service;14170;https://www.mazda.de/api/dealers
 ;DE;authorized car service|authorized car dealer;Mazda:service|Mazda:dealer;Autohaus Beyer GmbH;An den Bäckerwiesen 6;Greifswald;17489;+49 3834 516780;mazda@beyer24.de;https://www.mazda-autohaus-beyer-greifswald.de;54.07103;13.38917;Car Repair|Car Sales|Parts Sales|Mazda Europe Service;14171;https://www.mazda.de/api/dealers
 ;DE;authorized car service|authorized car dealer;Mazda:service|Mazda:dealer;Autowelt AKTIV Annaberg GmbH;Alte Poststraße 18;Annaberg-Buchholz;9456;+49 3733 56440;info@boettcher-aktiv.de;https://www.fmm.mazda.de/haendler/14172;50.57384;13.01141;Car Repair|Car Sales|Parts Sales;14172;https://www.mazda.de/api/dealers
 ;DE;authorized car service|authorized car dealer;Mazda:service|Mazda:dealer;Dörenkämper Automobile GmbH;Friedloser Straße 130-132;Bad Hersfeld;36251;+49 6621 400860;info@doerenkaemper-automobile.de;https://www.mazda-autohaus-doerenkaemper-bad-hersfeld.de;50.88624;9.725891;Car Repair|Car Sales|Parts Sales|Mazda Europe Service;14173;https://www.mazda.de/api/dealers
 ;DE;authorized car service|authorized car dealer;Mazda:service|Mazda:dealer;Autohaus KOMET GmbH;Zeppelinstraße 7;Herrenberg;71083;+49 7032 33933;mail@komet-autohaus.de;https://www.mazda-autohaus-komet-herrenberg.de;48.5997124;8.861742;Car Repair|Car Sales|Parts Sales|Mazda Europe Service;15026;https://www.mazda.de/api/dealers
 ;DE;authorized car service|authorized car dealer;Mazda:service|Mazda:dealer;Auto-Franke GmbH;Einsteinstraße 14;Vaihingen;71665;+49 7042 98525;info@auto-franke.com;https://www.mazda-autohaus-franke-vaihingen.de;48.9287949;8.969584;Car Repair|Car Sales|Parts Sales|Mazda Europe Service;15027;https://www.mazda.de/api/dealers
 ;DE;authorized car service|authorized car dealer;Mazda:service|Mazda:dealer;Autohaus Klein GmbH;Gansäcker 10;Bietigheim-Bissingen;74321;+49 7142 51061;info@autowelt-klein.de;https://www.mazda-autohaus-klein-bietigheim-bissingen.de;48.9407654;9.140415;Car Repair|Car Sales|Parts Sales|Mazda Europe Service;15029;https://www.mazda.de/api/dealers
 ;DE;authorized car service|authorized car dealer;Mazda:service|Mazda:dealer;Wegst GmbH;Leibnizstraße 2;Kornwestheim;70806;+49 7154 801120;info@wegst-automobile.de;https://www.mazda-autohaus-wegst-kornwestheim.de;48.8676262;9.199408;Car Repair|Car Sales|Parts Sales|Mazda Europe Service;15032;https://www.mazda.de/api/dealers
 ;DE;authorized car service;Mazda:service;Autohaus Winterer OHG;Reichenaustraße 184;Konstanz;78467;+49 7531 98410;autohaus-winterer@t-online.de;https://www.mazda-service-winterer-konstanz.de;47.6722145;9.162532;Car Repair|Parts Sales|Mazda Europe Service;15047;https://www.mazda.de/api/dealers
 ;DE;authorized car service|authorized car dealer;Mazda:service|Mazda:dealer;Autohaus Banaszak OHG;Emmelsumer Straße 10;Wesel;46485;+49 281 66689;wesel@autohaus-banaszak.de;https://www.mazda-autohaus-banaszak-wesel.de;51.63105;6.630931;Car Repair|Car Sales|Parts Sales|Mazda Europe Service;15095;https://www.mazda.de/api/dealers
 ;DE;authorized car service;Mazda:service;Autohaus Reinhold Efferz GmbH;Industriestraße 8;Neuhäusel;56335;+49 2620 92020;verkauf@efferz.de;https://www.mazda-service-efferz-neuhäusel.de;50.3830566;7.702373;Car Repair|Parts Sales|Mazda Europe Service;15111;https://www.mazda.de/api/dealers
 ;DE;authorized car service|authorized car dealer;Mazda:service|Mazda:dealer;Autohaus Flindt GmbH;Eichholzer Straße 1-2;Marschacht;21436;+49 4176 246;mail@autohaus-flindt.de;https://www.mazda-autohaus-flindt-marschacht.de;53.4166451;10.3678856;Car Repair|Car Sales|Parts Sales|Mazda Europe Service;15118;https://www.mazda.de/api/dealers
 ;DE;authorized car service|authorized car dealer;Mazda:service|Mazda:dealer;Horst Wagner GmbH;Köln-Berliner-Straße 146;Dortmund;44287;+49 231 4422000;info@autohaus-wagner.org;https://www.mazda-autohaus-wagner-dortmund.de;51.50094;7.574749;Car Repair|Car Sales|Parts Sales|Mazda Europe Service;15128;https://www.mazda.de/api/dealers
 ;DE;authorized car service|authorized car dealer;Mazda:service|Mazda:dealer;Auto - Frey GmbH;Flotowstraße 1;Gersthofen;86368;+49 821 490110;info@auto-frey.com;https://www.mazda-autohaus-frey-gersthofen.de;48.4234;10.8660421;Car Repair|Car Sales|Parts Sales|Mazda Europe Service;15132;https://www.mazda.de/api/dealers
 ;DE;authorized car service|authorized car dealer;Mazda:service|Mazda:dealer;Auto R. Schraml GmbH;Lechwiesenstraße 56;Landsberg;86899;+49 8191 5888;info@autohaus-schraml.de;https://www.mazda-autohaus-schraml-landsberg.de;48.06924;10.8591394;Car Repair|Car Sales|Parts Sales|Mazda Europe Service;15133;https://www.mazda.de/api/dealers
 ;DE;authorized car service|authorized car dealer;Mazda:service|Mazda:dealer;Auto Kraus. Inh. Helmut Kraus;Mühlfeld 1;Buttenwiesen-Unterthürh.;86647;+49 8274 857;info@auto-kraus.com;https://www.mazda-autohaus-kraus-buttenwiesen-unterthuerheim.de;48.6057549;10.7139807;Car Repair|Car Sales|Parts Sales|Mazda Europe Service;15134;https://www.mazda.de/api/dealers
 ;DE;authorized car service|authorized car dealer;Mazda:service|Mazda:dealer;Autohaus Fischer GmbH;Hauptstraße 71;Hollenbach b. Aichach;86568;+49 8257 1063;info@ah-fischer.com;https://www.mazda-autohaus-fischer-hollenbach.de;48.4874039;11.0681772;Car Repair|Car Sales|Parts Sales|Mazda Europe Service;15136;https://www.mazda.de/api/dealers
 ;DE;authorized car service|authorized car dealer;Mazda:service|Mazda:dealer;Auto Vogt GmbH;Kreuzkette 2;Mörslingen;89435;+49 9074 2040;info@autovogt.de;https://www.mazda-autohaus-vogt-moerslingen.de;48.6236534;10.5064068;Car Repair|Car Sales|Parts Sales|Mazda Europe Service;15138;https://www.mazda.de/api/dealers
 ;DE;authorized car service|authorized car dealer;Mazda:service|Mazda:dealer;Auto Rott GmbH;Bunsenstraße 15;Ingolstadt;85053;+49 841 966460;verkauf@auto-rott.de;https://www.mazda-autohaus-rott-ingolstadt.de;48.73775;11.47239;Car Repair|Car Sales|Parts Sales|Mazda Europe Service;15144;https://www.mazda.de/api/dealers
 ;DE;authorized car service;Mazda:service;Auto Schleibinger. Bartholomäus Schleibinger. e.K.;Ortsstraße 15;Au-Osterwaal;84072;+49 8752 1820;auto-schleibinger@t-online.de;https://www.mazda-service-schleibinger-au-osterwaal.de;48.5802765;11.7179384;Car Repair|Parts Sales|Mazda Europe Service;15146;https://www.mazda.de/api/dealers
 ;DE;authorized car service|authorized car dealer;Mazda:service|Mazda:dealer;Autohaus Schindlbeck GmbH;Zwickauer Straße 21;Straubing;94315;+49 9421 92700;info@autohaus-schindlbeck.de;https://www.mazda-autohaus-schindlbeck-straubing.de;48.8806038;12.6105165;Car Repair|Car Sales|Parts Sales|Mazda Europe Service;15147;https://www.mazda.de/api/dealers
 ;DE;authorized car service|authorized car dealer;Mazda:service|Mazda:dealer;Autohaus Sonntag GmbH;Wenger Höfe 4;Dorsten;46284;+49 2362 952910;info@autohaus-sonntag.de;https://www.mazda-autohaus-sonntag-dorsten.de;51.6753235;7.0004;Car Repair|Car Sales|Parts Sales|Mazda Europe Service;15150;https://www.mazda.de/api/dealers
 ;DE;authorized car service|authorized car dealer;Mazda:service|Mazda:dealer;Autohaus Kopke & Bendel GmbH;Zechenstraße 18;Marl;45772;+49 2365 8565260;info@kopke-bendel.de;https://www.mazda-autohaus-kopke-bendel-marl.de;51.66289;7.084347;Car Repair|Car Sales|Parts Sales|Mazda Europe Service;15151;https://www.mazda.de/api/dealers
 ;DE;authorized car service|authorized car dealer;Mazda:service|Mazda:dealer;Autohaus Günter Schnickers GmbH & Co. KG;Sonsbecker Straße 36;Xanten;46509;+49 2801 71550;autohaus-schnickers@web.de;https://www.mazda-autohaus-schnickers-xanten.de;51.65348;6.436784;Car Repair|Car Sales|Parts Sales|Mazda Europe Service;15152;https://www.mazda.de/api/dealers
 ;DE;authorized car service|authorized car dealer;Mazda:service|Mazda:dealer;Auto Schwenke GmbH & Co.KG;Buschstraße 102;Duisburg;47166;+49 203 544430;Info@Auto-Schwenke.de;https://www.mazda-autohaus-schwenke-duisburg.de;51.4985771;6.762655;Car Repair|Car Sales|Parts Sales|Mazda Europe Service;15153;https://www.mazda.de/api/dealers
 ;DE;authorized car service|authorized car dealer;Mazda:service|Mazda:dealer;Autohaus Schnickers GmbH;Am Schürmannshütt 26c;Moers;47441;+49 2841 981090;info@schnickers-moers.de;https://www.mazda-autohaus-schnickers-moers.de;51.45532;6.616572;Car Repair|Car Sales|Parts Sales|Mazda Europe Service;15157;https://www.mazda.de/api/dealers
 ;DE;authorized car service|authorized car dealer;Mazda:service|Mazda:dealer;Autohaus Sauer. Inhaber: Torsten Heimer e. K.;Berliner Straße 7;Fritzlar;34560;+49 5622 1630;mazda-sauer@t-online.de;https://www.mazda-autohaus-sauer-fritzlar.de;51.1236649;9.281685;Car Repair|Car Sales|Parts Sales|Mazda Europe Service;15169;https://www.mazda.de/api/dealers
 ;DE;authorized car service|authorized car dealer;Mazda:service|Mazda:dealer;Autohaus Wedding GmbH;Albertsthal 13;Engelskirchen;51766;+49 2263 92270;info@autohauswedding.de;https://www.mazda-autohaus-wedding-engelskirchen-albertsth.de;50.98715;7.389779;Car Repair|Car Sales|Parts Sales|Mazda Europe Service;15173;https://www.mazda.de/api/dealers
 ;DE;authorized car service|authorized car dealer;Mazda:service|Mazda:dealer;Autohaus Sakowski GmbH;Hauffstraße 36;Schwielowsee-Geltow;14548;+49 3327 59930;info@autohaus-sakowski.de;https://www.mazda-autohaus-sakowski-schwielowsee-geltow.de;52.36331;12.97118;Car Repair|Car Sales|Parts Sales|Mazda Europe Service;15176;https://www.mazda.de/api/dealers
 ;DE;authorized car service|authorized car dealer;Mazda:service|Mazda:dealer;Autohaus Matschoß GmbH;Lehmkuhlenring 7;Strausberg;15344;+49 3341 31627;info@autohaus-matschoss.de;https://www.mazda-autohaus-matschoss-strausberg.de;52.5810356;13.9056873;Car Repair|Car Sales|Parts Sales|Mazda Europe Service;15180;https://www.mazda.de/api/dealers
 ;DE;authorized car service|authorized car dealer;Mazda:service|Mazda:dealer;Autohaus Ingo Hauf;Am Bültgraben 2;Osterburg;39606;+49 3937 80070;hauf@autohaus-hauf.de;https://www.mazda-autohaus-hauf-osterburg.de;52.7781868;11.7560234;Car Repair|Car Sales|Parts Sales|Mazda Europe Service;15192;https://www.mazda.de/api/dealers
 ;DE;authorized car service|authorized car dealer;Mazda:service|Mazda:dealer;Dietmar Lüders;Amtsweg 1a;Calvörde;39359;+49 39051 409;Info@autohaus-lueders.de;https://www.mazda-autohaus-lueders-calvoerde.de;52.39035;11.2972364;Car Repair|Car Sales|Parts Sales|Mazda Europe Service;15193;https://www.mazda.de/api/dealers
 ;DE;authorized car service|authorized car dealer;Mazda:service|Mazda:dealer;Autohaus Göbbels GmbH;Industriestraße 1;Kürten;51515;+49 2268 928225;info@autohaus-goebbels.de;https://www.mazda-autohaus-goebbels-kuerten.de;51.0386772;7.260519;Car Repair|Car Sales|Parts Sales|Mazda Europe Service;15195;https://www.mazda.de/api/dealers
 ;DE;authorized car service|authorized car dealer;Mazda:service|Mazda:dealer;Kowski OHG Nachf. Christine Kowski-Dreischmeier e.K.;Moorweg 3;Großenkneten-Bissel;26197;+49 4435 9711000;info@kowski.de;https://www.mazda-autohaus-kowski-grossenkneten-bissel.de;52.9595566;8.16551;Car Repair|Car Sales|Parts Sales|Mazda Europe Service;15200;https://www.mazda.de/api/dealers
 ;DE;authorized car service|authorized car dealer;Mazda:service|Mazda:dealer;Autohaus Torp GmbH & Co. KG;Pastorenweg 16;Wilhelmshaven;26388;+49 4423 991130;info@auto-torp.de;https://www.mazda-autohaus-torp-wilhelmshaven.de;53.56225;8.046789;Car Repair|Car Sales|Parts Sales|Mazda Europe Service;15202;https://www.mazda.de/api/dealers
 ;DE;authorized car service|authorized car dealer;Mazda:service|Mazda:dealer;Auto J. Becker GmbH;Kaiserslauterer Straße 21e;Homburg-Bruchhof;66424;+49 6841 993060;kontakt@auto-j-becker.de;https://www.mazda-autohaus-becker-homburg-bruchhof.de;49.3404961;7.356226;Car Repair|Car Sales|Parts Sales|Mazda Europe Service;15205;https://www.mazda.de/api/dealers
 ;DE;authorized car service|authorized car dealer;Mazda:service|Mazda:dealer;Autohaus Müller & Thurnes GmbH;Dirminger Straße 12;Tholey;66636;+49 6853 91190;Autohaus_mt@t-online.de;https://www.mazda-autohaus-mueller-und-thurnes-tholey.de;49.47493;7.036678;Car Repair|Car Sales|Parts Sales|Mazda Europe Service;15209;https://www.mazda.de/api/dealers
 ;DE;authorized car service|authorized car dealer;Mazda:service|Mazda:dealer;Auto Volz GmbH;Kurt-Schumacher-Straße 25;Saarbrücken;66130;+49 681 988400;auto-volz@t-online.de;https://www.mazda-autohaus-volz-saarbruecken.de;49.2055;7.04534;Car Repair|Car Sales|Parts Sales|Mazda Europe Service;15210;https://www.mazda.de/api/dealers
 ;DE;authorized car service|authorized car dealer;Mazda:service|Mazda:dealer;Günter Hamester GmbH;Höperstieg 2;Hamburg-Bergedorf;21033;+49 40 7241220;verkauf@ah-hamester.de;https://www.mazda-autohaus-hamester-hamburg-bergedorf.de;53.4959259;10.204915;Car Repair|Car Sales|Parts Sales|Mazda Europe Service;15220;https://www.mazda.de/api/dealers
 ;DE;authorized car service|authorized car dealer;Mazda:service|Mazda:dealer;Autohaus Herbert Lackmann. Inh. Ingo Lackmann;Dieselstraße 11;Sendenhorst;48324;+49 2526 2147;ingo.lackmann@autohaus-lackmann.de;https://www.mazda-autohaus-lackmann-sendenhorst.de;51.8466034;7.84599;Car Repair|Car Sales|Parts Sales|Mazda Europe Service;15221;https://www.mazda.de/api/dealers
 ;DE;authorized car service|authorized car dealer;Mazda:service|Mazda:dealer;Automobile Paul Flothkötter GmbH & Co. KG;Emsdettener Straße 136;Nordwalde;48356;+49 2573 92110;lisa.flothkoetter@flothkoetter.de;https://www.mazda-autohaus-flothkoetter-nordwalde.de;52.09553;7.477678;Car Repair|Car Sales|Parts Sales|Mazda Europe Service;15222;https://www.mazda.de/api/dealers
 ;DE;authorized car service;Mazda:service;Autohaus Ludger Raus e.K.;Ostendorf 50;Horstmar;48612;+49 2551 4200;info@autohaus-raus.de;https://www.mazda-service-raus-horstmar.de;52.10626;7.306929;Car Repair|Parts Sales|Mazda Europe Service;15228;https://www.mazda.de/api/dealers
 ;DE;authorized car service|authorized car dealer;Mazda:service|Mazda:dealer;Autohaus Neyer GmbH;Hansaring 156;Greven;48268;+49 2571 588640;info@autohaus-neyer.de;https://www.mazda-autohaus-neyer-greven.de;52.1103439;7.612431;Car Repair|Car Sales|Parts Sales|Mazda Europe Service;15236;https://www.mazda.de/api/dealers
 ;DE;authorized car service|authorized car dealer;Mazda:service|Mazda:dealer;Autohaus Gründel GmbH & Co. KG;Trinkbornstraße 3;Dörth;56281;+49 6747 94094;autohaus.gruendel@t-online.de;https://www.mazda-autohaus-gruendel-doerth.de;50.160553;7.585255;Car Repair|Car Sales|Parts Sales|Mazda Europe Service;15239;https://www.mazda.de/api/dealers
 ;DE;authorized car service|authorized car dealer;Mazda:service|Mazda:dealer;Autohaus Mengede GmbH;Waltroper Straße 8;Dortmund;44359;+49 231 331001;info@autohaus-mengede.de;https://www.mazda-autohaus-mengede-dortmund.de;51.575386;7.385004;Car Repair|Car Sales|Parts Sales|Mazda Europe Service;15245;https://www.mazda.de/api/dealers
 ;DE;authorized car service|authorized car dealer;Mazda:service|Mazda:dealer;Autohaus Herfter e.K. Inhaber Heidrun Herfter;Frankenberger Straße 58;Hainichen;9661;+49 37207 4920;stern@herfter.de;https://www.mazda-autohaus-herfter-hainichen.de;50.96757;13.1036911;Car Repair|Car Sales|Parts Sales|Mazda Europe Service;15250;https://www.mazda.de/api/dealers
 ;DE;authorized car service|authorized car dealer;Mazda:service|Mazda:dealer;Autohaus Wilfried Sturne. Inh. Dirk Sturne e. Kfm.;Colditzer Straße 7;Rochlitz;9306;+49 3737 41021;ah-sturne-rochlitz@t-online.de;https://www.mazda-autohaus-sturne-rochlitz.de;51.0582123;12.7893581;Car Repair|Car Sales|Parts Sales|Mazda Europe Service;15251;https://www.mazda.de/api/dealers
 ;DE;authorized car service|authorized car dealer;Mazda:service|Mazda:dealer;Autohaus Bülo e.K.;Bahnhofstraße 47;Naumburg;34311;+49 5625 829;autohaus.buelo@t-online.de;https://www.mazda-autohaus-buelo-naumburg.de;51.2527237;9.172464;Car Repair|Car Sales|Parts Sales|Mazda Europe Service;15253;https://www.mazda.de/api/dealers
 ;DE;authorized car service;Mazda:service;Autocenter Klaus GmbH;Oberriedweg 9-13a;Überlingen;88662;+49 7551 95200;info@autocenter-klaus.de;;47.77358;9.184775;Car Repair|Parts Sales|Mazda Europe Service;15256;https://www.mazda.de/api/dealers
 ;DE;authorized car service|authorized car dealer;Mazda:service|Mazda:dealer;Voigtländer & Meyer GmbH;Krausestraße 50;Hamburg;22049;+49 40 6970720;info@autohaus-vm.de;https://www.mazda-autohaus-voigtlaender-meyer-hamburg.de;53.5822144;10.0555687;Car Repair|Car Sales|Parts Sales|Mazda Europe Service;15261;https://www.mazda.de/api/dealers
 ;DE;authorized car service|authorized car dealer;Mazda:service|Mazda:dealer;Autohaus Schmidt e. K.;Zum Wasserturm 23-25;Meschede;59872;+49 2937 6552;info@schmidt-auto.de;https://www.mazda-autohaus-schmidt-meschede.de;51.3908119;8.155096;Car Repair|Car Sales|Parts Sales|Mazda Europe Service;15264;https://www.mazda.de/api/dealers
 ;DE;authorized car service|authorized car dealer;Mazda:service|Mazda:dealer;Autohaus Thoß Inh. Axel Seidel e.Kfm.;Ellefelder Straße 60;Falkenstein;8223;+49 3745 5533;info@autohaus-thoss.de;https://www.mazda-autohaus-thoss-falkenstein.de;50.48163;12.3793268;Car Repair|Car Sales|Parts Sales|Mazda Europe Service;15272;https://www.mazda.de/api/dealers
 ;DE;authorized car service|authorized car dealer;Mazda:service|Mazda:dealer;Autohaus Staudt GmbH;Robert-Bosch-Straße 4;Zirndorf;90513;+49 911 3239780;info@auto-staudt.de;https://www.mazda-autohaus-staudt-zirndorf.de;49.43285;10.9426661;Car Repair|Car Sales|Parts Sales|Mazda Europe Service;15273;https://www.mazda.de/api/dealers
 ;DE;authorized car service|authorized car dealer;Mazda:service|Mazda:dealer;Auto-Schwemmer GmbH;Weißenbrunner Hauptstraße 18;Leinburg-Weißenbrunn;91227;+49 9187 1578;Auto-Schwemmer.mazda@t-online.de;https://www.mazda-autohaus-schwemmer-leinburg-weissenbrunn.de;49.4289932;11.3532848;Car Repair|Car Sales|Parts Sales|Mazda Europe Service;15276;https://www.mazda.de/api/dealers
 ;DE;authorized car service|authorized car dealer;Mazda:service|Mazda:dealer;Auto Dresel GmbH;Hochstraße 14;Adelsdorf;91325;+49 9195 995656;kontakt@auto-dresel.de;https://www.mazda-autohaus-dresel-adelsdorf.de;49.7040367;10.8806143;Car Repair|Car Sales|Parts Sales|Mazda Europe Service;15277;https://www.mazda.de/api/dealers
 ;DE;authorized car service|authorized car dealer;Mazda:service|Mazda:dealer;Automobile Tierhold GmbH;Unterer Talweg 48;Augsburg;86179;+49 821 808990;info@tierhold.com;https://www.mazda-automobile-tierhold-augsburg.de;48.31858;10.891655;Car Repair|Car Sales|Parts Sales|Mazda Europe Service;15297;https://www.mazda.de/api/dealers
 ;DE;authorized car service|authorized car dealer;Mazda:service|Mazda:dealer;Autohaus Tillack GmbH;Schwarzer Weg 7;Perleberg;19348;+49 3876 79790;autohaus-tillack@t-online.de;https://www.mazda-autohaus-tillack-perleberg.de;53.06353;11.8390779;Car Repair|Car Sales|Parts Sales|Mazda Europe Service;15313;https://www.mazda.de/api/dealers
 ;DE;authorized car service|authorized car dealer;Mazda:service|Mazda:dealer;Automobile Thomas Günther GmbH;Weimarische Straße 38;Erfurt;99099;+49 361 590230;thomas.guenther@guenther-automobile.de;https://www.mazda-automobile-guenther-erfurt.de;50.97356;11.0537128;Car Repair|Car Sales|Parts Sales|Mazda Europe Service;15315;https://www.mazda.de/api/dealers
 ;DE;authorized car service|authorized car dealer;Mazda:service|Mazda:dealer;Krämer Automobile GmbH;Dreifelderstraße 18;Stuttgart;70599;+49 711 167270;info@kraemer-automobile-gmbh.de;https://www.mazda-autohaus-kraemer-stuttgart.de;48.70304;9.219636;Car Repair|Car Sales|Parts Sales|Mazda Europe Service;15318;https://www.mazda.de/api/dealers
 ;DE;authorized car service|authorized car dealer;Mazda:service|Mazda:dealer;Autoland Werther GmbH;Am Mühlweg 1;Werther (Nordhausen);99735;+49 3631 61170;info@autoland-werther.de;https://www.mazda-autoland-werther-werther-nordhausen.de;51.4856148;10.7443457;Car Repair|Car Sales|Parts Sales|Mazda Europe Service;15333;https://www.mazda.de/api/dealers
 ;DE;authorized car service|authorized car dealer;Mazda:service|Mazda:dealer;Autohaus Gaida & Fichtler GmbH;Sommerfelder Straße 86;Leipzig-Mölkau;4316;+49 341 6598800;post@mazda-autohaus-gaida-fichtler.de;https://www.mazda-autohaus-gaida-leipzig-moelkau.de;51.325634;12.4353762;Car Repair|Car Sales|Parts Sales|Mazda Europe Service;15335;https://www.mazda.de/api/dealers
 ;DE;authorized car service|authorized car dealer;Mazda:service|Mazda:dealer;Autohaus Baumgart GmbH;Lohmühleweg 12;Altensteig;72213;+49 7453 8630;info@autohaus-baumgart.de;https://www.mazda-autohaus-baumgart-altensteig.de;48.59234;8.622243;Car Repair|Car Sales|Parts Sales|Mazda Europe Service;15340;https://www.mazda.de/api/dealers
 ;DE;authorized car service|authorized car dealer;Mazda:service|Mazda:dealer;Kraftfahrzeughandel Gebrüder Witthöft GmbH;Industriestraße 21-25;Bad Oldesloe;23843;+49 4531 86900;info@gebr-witthoeft.de;https://www.mazda-autohaus-witthoeft-bad-oldesloe.de;53.8012924;10.39248;Car Repair|Car Sales|Parts Sales|Mazda Europe Service;15345;https://www.mazda.de/api/dealers
 ;DE;authorized car service|authorized car dealer;Mazda:service|Mazda:dealer;Autohaus Möllenkamp GmbH;Am Leugershof 12-16;Rheine;48429;+49 5971 64585;Autohaus-Moellenkamp@t-online.de;https://www.mazda-autohaus-moellenkamp-rheine.de;52.2689;7.46296;Car Repair|Car Sales|Parts Sales|Mazda Europe Service;15353;https://www.mazda.de/api/dealers
 ;DE;authorized car service|authorized car dealer;Mazda:service|Mazda:dealer;Richard Dämpfle GmbH Kraftfahrzeuge;Ravensburger Straße 14-18;Meckenbeuren;88074;+49 7542 53910;info@daempfle.de;https://www.daempfle.de;47.7017136;9.564245;Car Repair|Car Sales|Parts Sales|Mazda Europe Service;15354;https://www.mazda.de/api/dealers
 ;DE;authorized car service|authorized car dealer;Mazda:service|Mazda:dealer;Autohaus Roth;Waldmössinger Straße 13;Dunningen-Seedorf;78655;+49 7402 7770;roth.mazda-autohaus@t-online.de;https://www.mazda-autohaus-roth-dunningen-seedorf.de;48.2507057;8.490053;Car Repair|Car Sales|Parts Sales|Mazda Europe Service;15355;https://www.mazda.de/api/dealers
 ;DE;authorized car service|authorized car dealer;Mazda:service|Mazda:dealer;Autohaus Koschnick GmbH;Gehringstraße 17-18;Berlin;13088;+49 30 9270430;info@autohaus-koschnick.de;https://www.mazda-autohaus-koschnick-berlin.de;52.56255;13.4642267;Car Repair|Car Sales|Parts Sales|Mazda Europe Service;15358;https://www.mazda.de/api/dealers
 ;DE;authorized car service|authorized car dealer;Mazda:service|Mazda:dealer;Autohaus Rodewald GmbH;Hainhäuser Weg 97-99;Langenhagen;30855;+49 511 2200720;info@autohaus-rodewald.de;https://www.mazda-autohaus-rodewald-langenhagen.de;52.4782372;9.745687;Car Repair|Car Sales|Parts Sales|Mazda Europe Service;15371;https://www.mazda.de/api/dealers
 ;DE;authorized car service|authorized car dealer;Mazda:service|Mazda:dealer;Autohaus Meyer GmbH;Verdener Landstraße 190;Nienburg;31582;+49 5021 601919;info@meyer-nienburg.com;https://www.mazda-autohaus-meyer-nienburg.de;52.66908;9.224493;Car Repair|Car Sales|Parts Sales|Mazda Europe Service;15373;https://www.mazda.de/api/dealers
 ;DE;authorized car service;Mazda:service;Autohaus von Kannen GmbH;Hauptstraße 216;Heimbuchenthal;63872;+49 6092 995100;autohaus-von-kannen@t-online.de;https://www.mazda-service-kannen-heimbuchenthal.de;49.880188;9.289278;Car Repair|Parts Sales|Mazda Europe Service;15383;https://www.mazda.de/api/dealers
 ;DE;authorized car service|authorized car dealer;Mazda:service|Mazda:dealer;Auto Römhild GmbH;Henschelstraße 5-7;Rodgau;63110;+49 6106 87960;info@auto-roemhild.de;https://www.mazda-autohaus-roemhild-rodgau.de;49.98893;8.86427;Car Repair|Car Sales|Parts Sales|Mazda Europe Service;15389;https://www.mazda.de/api/dealers
 ;DE;authorized car service|authorized car dealer;Mazda:service|Mazda:dealer;Autohaus Schewe e.K. Inhaber Norman Schewe;Otto-Hahn-Straße 1;Groß-Umstadt;64823;+49 6078 93540;info@autohaus-schewe.de;https://www.mazda-autohaus-schewe-gross-umstadt.de;49.8727074;8.914431;Car Repair|Car Sales|Parts Sales|Mazda Europe Service;15394;https://www.mazda.de/api/dealers
 ;DE;authorized car service|authorized car dealer;Mazda:service|Mazda:dealer;Auto Fischer e.K.;Am Spitzacker 1;Karben;61184;+49 6039 1046;info@auto-fischer-karben.de;https://www.mazda-autohaus-fischer-karben.de;50.2540359;8.752518;Car Repair|Car Sales|Parts Sales|Mazda Europe Service;15403;https://www.mazda.de/api/dealers
 ;DE;authorized car service|authorized car dealer;Mazda:service|Mazda:dealer;Autohaus Schreier GmbH;Büchelbach 8;Biebergemünd-Bieber;63599;+49 6050 1890;info@autohaus-schreier.de;https://www.mazda-autohaus-schreier-biebergemuend-bieber.de;50.160965;9.33263;Car Repair|Car Sales|Parts Sales|Mazda Europe Service;15404;https://www.mazda.de/api/dealers
 ;DE;authorized car service|authorized car dealer;Mazda:service|Mazda:dealer;Lummert-Automobile KG;Oberweg 27;Calden;34379;+49 5674 844;lummert@t-online.de;https://www.mazda-autohaus-lummert-calden.de;51.4118;9.407742;Car Repair|Car Sales|Parts Sales|Mazda Europe Service;15413;https://www.mazda.de/api/dealers
 ;DE;authorized car service|authorized car dealer;Mazda:service|Mazda:dealer;Gerhard und Figge GmbH;Alrafter Straße 19;Waldeck-Höringhausen;34513;+49 5634 1070;info@gerhard-figge.de;https://www.mazda-autohaus-gerhard-figge-waldeck-hoeringhausen.de;51.272438;8.983125;Car Repair|Car Sales|Parts Sales|Mazda Europe Service;15415;https://www.mazda.de/api/dealers
 ;DE;authorized car service|authorized car dealer;Mazda:service|Mazda:dealer;Autohaus Fenchel GmbH;Butzbacher Straße 14;Münzenberg-Gambach;35516;+49 6033 96340;info@mazdafenchel.de;https://www.mazda-autohaus-fenchel-muenzenberg-gambach.de;50.4568748;8.731627;Car Repair|Car Sales|Parts Sales|Mazda Europe Service;15419;https://www.mazda.de/api/dealers
 ;DE;authorized car service;Mazda:service;Weber Fahrzeugtechnik GbR;Industriestr. 32;Geisenheim;65366;+49 6722 9379200;info@weber-auto-service.de;https://www.mazda-service-weber-oestrich-winkel.de;49.99039;7.977129;Car Repair|Parts Sales|Mazda Europe Service;15425;https://www.mazda.de/api/dealers
 ;DE;authorized car service|authorized car dealer;Mazda:service|Mazda:dealer;Autohaus Paul Weiss GmbH & Co.KG;Frankfurter Straße 15;Niedernhausen;65527;+49 6127 98003;autohaus@paul-weiss.com;https://www.mazda-autohaus-weiss-niedernhausen.de;50.1504364;8.331143;Car Repair|Car Sales|Parts Sales|Mazda Europe Service;15426;https://www.mazda.de/api/dealers
 ;DE;authorized car service|authorized car dealer;Mazda:service|Mazda:dealer;Autohaus Wiatr GmbH;Flugplatzstraße 37;Mainz;55126;+49 6131 947270;auto-wiatr@t-online.de;https://www.mazda-autohaus-wiatr-mainz.de;49.9824638;8.167356;Car Repair|Car Sales|Parts Sales|Mazda Europe Service;15427;https://www.mazda.de/api/dealers
 ;DE;authorized car service|authorized car dealer;Mazda:service|Mazda:dealer;Autohaus Lips GmbH;Mainzer Straße 23;Bad Kreuznach;55545;+49 671 8962676;info@auto-lips.de;https://www.mazda-autohaus-lips-bad-kreuznach.de;49.8592262;7.903906;Car Repair|Car Sales|Parts Sales|Mazda Europe Service;15429;https://www.mazda.de/api/dealers
 ;DE;authorized car service|authorized car dealer;Mazda:service|Mazda:dealer;Autohaus Limberger GmbH;Carl-Zeiss-Straße 2;Bad Camberg;65520;+49 6434 7144;autohaus.limberger@t-online.de;https://www.mazda-autohaus-limberger-bad-camberg.de;50.29568;8.249585;Car Repair|Car Sales|Parts Sales|Mazda Europe Service;15431;https://www.mazda.de/api/dealers
 ;DE;authorized car service|authorized car dealer;Mazda:service|Mazda:dealer;Autohaus Rupp e.K.;Hauptstraße 1a;Hambrücken;76707;+49 7255 72200;rupp@rupp.org;https://www.mazda-autohaus-rupp-hambruecken.de;49.17981;8.548444;Car Repair|Car Sales|Parts Sales|Mazda Europe Service;15436;https://www.mazda.de/api/dealers
 ;DE;authorized car service|authorized car dealer;Mazda:service|Mazda:dealer;Autohaus Rössel GmbH;Hauptstraße 145;Birkenau;69488;+49 6201 31235;info@autohaus-roessel.de;https://www.mazda-autohaus-roessel-birkenau.de;49.5675926;8.708739;Car Repair|Car Sales|Parts Sales|Mazda Europe Service;15438;https://www.mazda.de/api/dealers
 ;DE;authorized car service|authorized car dealer;Mazda:service|Mazda:dealer;Autohaus Ried GmbH;Chemiestraße 6;Lampertheim;68623;+49 6206 57203;info@autohaus-ried.com;https://www.mazda-autohaus-ried-lampertheim.de;49.6080933;8.450945;Car Repair|Car Sales|Parts Sales|Mazda Europe Service;15439;https://www.mazda.de/api/dealers
 ;DE;authorized car service;Mazda:service;Autohaus Keller GmbH;Wetzlarer Straße 78-80;Leun;35638;+49 6473 922140;info@keller-automobile.de;https://www.mazda-service-keller-leun.de;50.5434952;8.363813;Car Repair|Parts Sales|Mazda Europe Service;15442;https://www.mazda.de/api/dealers
 ;DE;authorized car service|authorized car dealer;Mazda:service|Mazda:dealer;Autohaus Keßler GmbH;Zum Eichenbrunnen 5;Burkardroth;97705;+49 9734 9319360;info@autohaus-kessler.de;https://www.mazda-autohaus-kessler-burkardroth.de;50.2629433;9.992754;Car Repair|Car Sales|Parts Sales|Mazda Europe Service;15453;https://www.mazda.de/api/dealers
 ;DE;authorized car service|authorized car dealer;Mazda:service|Mazda:dealer;Auto Wassing GmbH & Co. KG;Stadtlohner Straße 87-89;Ahaus-Wüllen;48683;+49 2561 98330;info@auto-wassing.de;https://www.mazda-autohaus-wassing-ahaus-wuellen.de;52.0648727;6.969311;Car Repair|Car Sales|Parts Sales|Mazda Europe Service;15471;https://www.mazda.de/api/dealers
 ;DE;authorized car service|authorized car dealer;Mazda:service|Mazda:dealer;Autohäuser Wilk & Kaczmarek GmbH;Bremsweg 20;Schwerin;19057;+49 385 485210;info.mazda@wk-kw.de;https://www.mazda-autohaus-wilk-kaczmarek-schwerin.de;53.6458321;11.3519287;Car Repair|Car Sales|Parts Sales|Mazda Europe Service;15473;https://www.mazda.de/api/dealers
 ;DE;authorized car service|authorized car dealer;Mazda:service|Mazda:dealer;Autohaus Born GmbH;Möderitzer Weg 56;Parchim;19370;+49 3871 62723;d.born@ah-born.de;https://www.mazda-autohaus-born-parchim.de;53.4370346;11.8401155;Car Repair|Car Sales|Parts Sales|Mazda Europe Service;15474;https://www.mazda.de/api/dealers
 ;DE;authorized car service|authorized car dealer;Mazda:service|Mazda:dealer;Sobkowski GmbH;Holländerstraße 53;Berlin;13407;+49 30 4989980;info@sobkowski.de;https://www.mazda-autohaus-sobkowski-berlin.de;52.563755;13.3411779;Car Repair|Car Sales|Parts Sales|Mazda Europe Service;15476;https://www.mazda.de/api/dealers
 ;DE;authorized car service|authorized car dealer;Mazda:service|Mazda:dealer;Autohaus Torsten Valeske e.Kfm.;Sonnenweg 7;Wittstock;16909;+49 3394 47460;mail@autohaus-valeske.de;https://www.mazda-autohaus-valeske-wittstock.de;53.15285;12.4764423;Car Repair|Car Sales|Parts Sales|Mazda Europe Service;15478;https://www.mazda.de/api/dealers
 ;DE;authorized car service|authorized car dealer;Mazda:service|Mazda:dealer;Autohaus Dittrich. Inh. Klaus-Peter Dittrich;Mützeler Straße 1;Genthin-Hüttermühle;39307;+49 3933 91073;dittrich-autohaus@t-online.de;https://www.mazda-autohaus-dittrich-genthin-huettermuehle.de;52.36927;12.15931;Car Repair|Car Sales|Parts Sales|Mazda Europe Service;15479;https://www.mazda.de/api/dealers
 ;DE;authorized car service|authorized car dealer;Mazda:service|Mazda:dealer;Autohaus Richter GbR;Ebereschenweg 22;Forst;3149;+49 3562 97070;autohaus_h.richter@gmx.de;https://www.mazda-autohaus-richter-forst.de;51.7232475;14.625947;Car Repair|Car Sales|Parts Sales|Mazda Europe Service;15481;https://www.mazda.de/api/dealers
 ;DE;authorized car service|authorized car dealer;Mazda:service|Mazda:dealer;Autohaus Schenk & Eiserfey GmbH;Steinfurther Straße 48a;Wolfen;6766;+49 3494 22313;a.eiserfey@schenk-eiserfey.de;https://www.mazda-autohaus-schenk-eiserfey-wolfen.de;51.68241;12.2737637;Car Repair|Car Sales|Parts Sales|Mazda Europe Service;15489;https://www.mazda.de/api/dealers
 ;DE;authorized car service|authorized car dealer;Mazda:service|Mazda:dealer;Autohaus Schulze GmbH;Gewerbegebiet Waldstraße 18;Borna-Zedtlitz;4552;+49 3433 208322;Kontakt@Autohaus-Schulze-Borna.de;https://www.mazda-autohaus-schulze-borna-zedtlitz.de;51.1087875;12.5150127;Car Repair|Car Sales|Parts Sales|Mazda Europe Service;15494;https://www.mazda.de/api/dealers
 ;DE;authorized car service|authorized car dealer;Mazda:service|Mazda:dealer;Helmut Hildmann GmbH;Tilsiter Straße 11;Enkenbach-Alsenborn;67677;+49 6303 9997830;hildmann_gmbh@t-online.de;https://www.mazda-autohaus-hildmann-enkenbach-alsenborn.de;49.492588;7.895774;Car Repair|Car Sales|Parts Sales|Mazda Europe Service;15503;https://www.mazda.de/api/dealers
